geolocation_zip_code_prefix,geolocation_lat,geolocation_lng,geolocation_city,geolocation_state
18120,-23.45191336615063,-47.20439092897492,mairinque,SP
36038,-21.777914336112847,-43.38863312683941,juiz de fora,MG
88330,-26.99588327032722,-48.62775038467312,balneario camboriu,SC
36025,-21.77460981709849,-43.35327441104508,juiz de fora,MG
91380,-30.021469040798664,-51.143754063708144,porto alegre,RS
9260,-23.625327206215022,-46.50100458866645,santo andre,SP
63260,-7.493216232995274,-38.98218288573176,brejo santo,CE
17780,-21.727039114251152,-51.01351928681216,lucelia,SP
18120,-23.5478413879584,-47.18536198174751,mairinque,SP
38680,-15.906645121954622,-46.101267290096,arinos,MG
96745,-29.9770097624274,-51.62786365222109,charqueadas,RS
86060,-23.309902583386343,-51.172848272548926,londrina,PR
25640,-22.524305467499875,-43.18020803250011,petropolis,RJ
12903,-22.94790081043339,-46.543608879825705,braganca paulista,SP
23085,-22.89831558866646,-43.54718785677199,rio de janeiro,RJ
32400,-20.02786665856414,-44.05786937342153,ibirite,MG
85869,-25.4883751133518,-54.55766586171614,foz do iguacu,PR
25954,-22.43465651756435,-42.944792661423485,teresopolis,RJ
13301,-23.2528803322177,-47.29427757842335,itu,SP
83702,-25.592897850041453,-49.4035574139131,araucária,PR
3407,-23.54217018151652,-46.550981618933534,sao paulo,SP
39740,-18.77521252372721,-42.93422960720459,guanhães,MG
5652,-23.597147127387657,-46.71558878100302,sao paulo,SP
14940,-21.76522158625501,-48.82701888882072,ibitinga,SP
18031,-23.51653459838998,-47.4604896530671,sorocaba,SP
8470,-23.511205508742563,-46.729464595475775,sao paulo,SP
39260,-17.585831818330952,-44.74191970814056,varzea da palma,MG
1423,-23.56925275298631,-46.656701816406006,são paulo,SP
3415,-23.56192657507645,-46.54517408381904,sao paulo,SP
22780,-22.95788954232788,-43.38398511379764,rio de janeiro,RJ
80710,-25.420783233401657,-49.29847930276043,curitiba,PR
37305,-21.48297361058661,-44.33265641943099,madre de deus de minas,MG
13842,-22.38603911840717,-46.92439353391164,mogi-guacu,SP
5170,-23.48258481709849,-46.74910350207745,sao paulo,SP
11717,-24.02187015015292,-46.4855839365803,praia grande,SP
37640,-22.853018378183013,-46.30530184182136,extrema,MG
65728,-4.521735209991027,-44.46523318851332,lima campos,MA
9040,-23.65885328449413,-46.53216393894623,santo andré,SP
36400,-20.66835045826932,-43.79671434045886,conselheiro lafaiete,MG
5871,-23.683699948929547,-46.770602474464766,sao paulo,SP
12213,-23.143653237915643,-45.92102889265821,sao jose dos campos,SP
5185,-23.44698313901211,-46.74725475332709,sao paulo,SP
87970,-22.763398785217102,-52.999744809141326,nova londrina,PR
9660,-23.65286477265065,-46.59479103315416,sao bernardo do campo,SP
11680,-23.43618295560797,-45.08070366988875,ubatuba,SP
7134,-23.429166590339907,-46.51410438121067,guarulhos,SP
89540,-26.967835466749445,-50.41930500693583,santa cecília,SC
2341,-23.47404675021634,-46.61379614960465,sao paulo,SP
4757,-23.651274331515857,-46.718057660666,sao paulo,SP
9330,-23.676030921461088,-46.413445373449065,maua,SP
17509,-22.216856563419697,-49.93974142437527,marilia,SP
37510,-22.327383039394647,-45.52176080162258,sao jose do alegre,MG
9400,-23.711153573691483,-46.41471513350449,ribeirao pires,SP
5782,-23.650368726614367,-46.76906904356862,sao paulo,SP
74915,-16.75270488880408,-49.28195609228162,aparecida de goiania,GO
60341,-3.715048828548543,-38.58861516099415,fortaleza,CE
12324,-23.31214835746097,-45.99557361409737,jacarei,SP
8151,-23.514219649460426,-46.40568378573488,sao paulo,SP
44066,-12.223294660835576,-38.94707864882449,feira de santana,BA
3937,-23.583305514570952,-46.49977327990652,sao paulo,SP
50740,-8.042819714467026,-34.94978419720343,recife,PE
95890,-29.472422272506154,-51.81166944687697,teutonia,RS
65707,-3.893027588393266,-45.16400171264996,pio xii,MA
37970,-20.744437461808023,-46.86636623601658,pratapolis,MG
7191,-23.45672342714523,-46.50716476311385,guarulhos,SP
83880,-26.10585658301052,-49.79584469821593,rio negro,PR
58039,-7.112465427902073,-34.82676620406026,joão pessoa,PB
29730,-19.51628953795144,-41.00621706648061,baixo guandu,ES
30380,-19.941075722459416,-43.94832067470718,belo horizonte,MG
9930,-23.66873023316389,-46.61339007920274,diadema,SP
19914,-22.97487983458363,-49.85410316570484,ourinhos,SP
50710,-8.044625168474784,-34.90685695115124,recife,PE
87050,-23.42474107509995,-51.92157590573404,maringa,PR
38440,-18.65887910871632,-48.19526208710162,araguari,MG
88210,-27.15017064360665,-48.58905612205815,porto belo,SC
17516,-22.21786573572057,-49.935949688907854,marilia,SP
6706,-23.57975506820028,-46.871983828677,cotia,SP
72620,-15.910596905722636,-48.07807242868003,brasilia,DF
17580,-22.1087537362964,-50.19516040987678,pompeia,SP
60442,-3.746776405013002,-38.56696310298362,fortaleza,CE
5359,-23.56552903719197,-46.74796007271051,sao paulo,SP
37464,-22.29638614990691,-44.93948415904858,itanhandu,MG
52051,-8.028719717179301,-34.903715798920864,recife,PE
39915,-15.688592954875524,-40.73824117571555,mata verde,MG
9671,-23.666027761873103,-46.6079568749496,sao bernardo do campo,SP
36201,-21.223578967601764,-43.7911158140976,barbacena,MG
15400,-20.743889038503248,-48.90925803858934,olímpia,SP
79009,-20.45053833582438,-54.63181070041531,campo grande,MS
52011,-8.05080065667379,-34.901488733971945,recife,PE
6532,-23.441580985106803,-46.88555951861649,santana de parnaíba,SP
9420,-23.7164301989104,-46.41305843606453,ribeirao pires,SP
68180,-4.265101639290822,-55.98325312346403,itaituba,PA
88140,-27.673707673236127,-48.80336012365006,santo amaro da imperatriz,SC
41340,-12.893095218667744,-38.411010000000005,salvador,BA
60868,-3.837295192045838,-38.52714438197655,fortaleza,CE
31710,-19.84339477159662,-43.95597713281201,belo horizonte,MG
15420,-20.49747730308274,-48.94790649807256,guaraci,SP
29216,-20.656956703540505,-40.49402030580621,guarapari,ES
98918,-27.67027422274809,-54.10817414561099,boa vista do burica,RS
36088,-21.711945048848747,-43.43947769969415,juiz de fora,MG
88056,-27.44123893347336,-48.41880109030407,florianopolis,SC
37975,-20.74470919391143,-46.74246921431112,itau de minas,MG
1307,-23.553325174562964,-46.65245602138027,sao paulo,SP
20021,-22.912817406601672,-43.177113497230025,rio de janeiro,RJ
1450,-23.57776039301168,-46.68287624147377,sao paulo,SP
9710,-23.709996535588456,-46.54648163073148,são bernardo do campo,SP
89600,-27.167255203993328,-51.510217935599336,joacaba,SC
69151,-2.627648057008038,-56.7415192011693,parintins,AM
70237,-15.809651999999993,-47.8862505,brasília,DF
89295,-26.25097149942702,-49.52434143154531,rio negrinho,SC
13504,-22.39997377018299,-47.590972197068425,rio claro,SP
54759,-8.022677500692485,-34.98474526213291,camaragibe,PE
13560,-22.02739300582837,-47.88749011033519,sao carlos,SP
11010,-23.93388553205609,-46.32720266472387,santos,SP
40315,-12.966129366639732,-38.48072285844542,salvador,BA
38402,-18.87536586421473,-48.27799084812257,uberlandia,MG
14910,-21.73840721613154,-48.68207901191092,tabatinga,SP
89400,-26.251430003049894,-51.07944732338405,porto uniao,SC
6787,-23.62326098834324,-46.79889192007611,taboao da serra,SP
13150,-22.64161916697821,-47.19263442176802,cosmopolis,SP
20231,-22.909724436003383,-43.18630068971084,rio de janeiro,RJ
91210,-30.038770121011016,-51.1413231730624,porto alegre,RS
89665,-27.3456146670438,-51.60956681468733,capinzal,SC
78890,-12.54846520766685,-55.73914848475693,sorriso,MT
26580,-22.787408249546555,-43.42402303460332,mesquita,RJ
31975,-19.852275028305183,-43.88829911310516,belo horizonte,MG
89259,-26.5179233273673,-49.07978542435329,jaragua do sul,SC
86088,-23.26877019317328,-51.14525358713723,londrina,PR
23933,-22.96982110496669,-44.29323908312842,angra dos reis,RJ
15870,-21.056519117697825,-49.06168114744277,catigua,SP
7263,-23.463796316406,-46.4128501275319,guarulhos,SP
3307,-23.54277053067112,-46.57502313295623,são paulo,SP
45027,-14.88038754804167,-40.83193635296698,vitória da conquista,BA
35600,-19.74269231422417,-45.2601518050645,bom despacho,MG
90620,-30.04971944434192,-51.20573833694957,porto alegre,RS
18611,-22.87905780203625,-48.437244730473054,botucatu,SP
4902,-23.67017855398464,-46.7342848030758,sao paulo,SP
29308,-20.844320805999928,-41.11636499999997,cachoeiro de itapemirim,ES
71510,-15.727434715794312,-47.881616757833726,brasília,DF
36073,-21.769180103525866,-43.29907148112988,juiz de fora,MG
31510,-19.81032025451552,-43.9698144240868,belo horizonte,MG
2208,-23.48246466388716,-46.59665587538231,sao paulo,SP
70346,-15.814399500000002,-47.90169900000001,brasilia,DF
13145,-22.748335072162263,-47.17443438634657,paulínia,SP
78575,-11.261358612047893,-57.51227589059896,juara,MT
9450,-23.74812330862702,-46.39610420315393,rio grande da serra,SP
2202,-23.494047359974623,-46.59420639231918,sao paulo,SP
4852,-23.76157843658029,-46.66060232708181,sao paulo,SP
35195,-19.224492470227343,-42.48552235158053,belo oriente,MG
12980,-22.92893842528632,-46.27569852135666,joanopolis,SP
20521,-22.92872713211952,-43.23090625200534,rio de janeiro,RJ
86480,-23.62408704225104,-50.1704311969274,conselheiro mairinck,PR
64635,-6.818036093741583,-41.34643746634227,sao joao da canabrava,PI
89050,-26.91329543808304,-49.06108520626194,blumenau,SC
14804,-21.76869665605995,-48.20240317242338,araraquara,SP
79004,-20.478546316127023,-54.59868604798967,campo grande,MS
25050,-22.75967026026143,-43.29219359487645,duque de caxias,RJ
95840,-29.87774161280492,-51.69604647663182,triunfo,RS
9810,-23.717492174363244,-46.56392872651517,sao bernardo do campo,SP
17603,-21.941677926729565,-50.50527183514751,tupa,SP
19061,-22.131925166273632,-51.41307304096475,presidente prudente,SP
4560,-23.609083958160312,-46.68301961190825,sao paulo,SP
13483,-22.552856497085813,-47.45050077407814,limeira,SP
9370,-23.682311474897464,-46.46032107799064,mauá,SP
88090,-27.59564055620633,-48.593320361215376,florianópolis,SC
13456,-22.74705047611412,-47.36355338386633,santa bárbara doeste,SP
12236,-23.254004263113856,-45.90423120996592,sao jose dos campos,SP
35290,-18.779960548723057,-40.98212164033626,mantena,MG
74823,-16.713772765859986,-49.25596646916156,goiania,GO
6453,-23.496967777357565,-46.84950787358613,barueri,SP
6416,-23.485361417789576,-46.88733720126757,barueri,SP
76913,-10.905331505581977,-61.9117791352984,ji-parana,RO
70234,-15.810063002199271,-47.89094379772743,brasilia,DF
76360,-14.967145462711931,-49.54653437583326,itapaci,GO
96081,-31.74199489203073,-52.316052291015005,pelotas,RS
35053,-18.865204311203293,-41.97061068246872,governador valadares,MG
8032,-23.519076827770448,-46.429997708611744,sao paulo,SP
28941,-22.83356506301172,-42.09954018378407,sao pedro da aldeia,RJ
72876,-16.073584665587422,-47.98287630378127,valparaíso de goiás,GO
1251,-23.54627939993657,-46.67337757103707,sao paulo,SP
22640,-23.00852781390132,-43.30452174263297,rio de janeiro,RJ
13601,-22.36102874711861,-47.3786932618457,araras,SP
4830,-23.73213655536961,-46.700847806278446,sao paulo,SP
14820,-21.742360242530644,-48.11832213362352,americo brasiliense,SP
88511,-27.824278547319533,-50.31404217346645,lages,SC
98200,-28.630169864615187,-53.092993666438105,ibiruba,RS
9841,-23.7418372986324,-46.58058104856028,sao bernardo do campo,SP
41760,-12.996685694231193,-38.44516236220614,salvador,BA
15080,-20.833316358266977,-49.36790806266469,sao jose do rio preto,SP
80320,-25.4682727971032,-49.29601403176764,curitiba,PR
15550,-20.294937,-49.7303055,americo de campos,SP
20775,-22.889085442148883,-43.27594893808084,rio de janeiro,RJ
11675,-23.61862349999999,-45.42849675000001,caraguatatuba,SP
11520,-23.89520125154504,-46.42248534482012,cubatao,SP
32689,-19.9439027272702,-44.07802624204075,betim,MG
14025,-21.193461010271783,-47.81516719539498,ribeirao preto,SP
98200,-28.625193,-53.08697964828836,ibiruba,RS
29305,-20.85786924082521,-41.09691346058427,cachoeiro de itapemirim,ES
3324,-23.55092506597404,-46.56547699940449,sao paulo,SP
13203,-23.21143098389984,-46.86265776908645,jundiai,SP
96810,-29.714521705720006,-52.42589262255828,santa cruz do sul,RS
30672,-20.02416461009796,-44.02463928273265,belo horizonte,MG
27285,-22.493207902302505,-44.091913081453086,volta redonda,RJ
78870,-14.422090499999998,-54.04274325,paranatinga,MT
18900,-22.887511848904868,-49.62169757711764,santa cruz do rio pardo,SP
13561,-22.014251644392857,-47.899285441606885,sao carlos,SP
31030,-19.90417089286744,-43.930261377604005,belo horizonte,MG
69043,-3.0756076239252064,-60.0342720925616,manaus,AM
93044,-29.77308557234309,-51.12247547389844,sao leopoldo,RS
3730,-23.51252870774424,-46.54258379156326,sao paulo,SP
13780,-21.66096286945192,-46.73989850986008,divinolandia,SP
11630,-23.84550459612676,-45.40554464768271,ilhabela,SP
65090,-2.5290149999999585,-44.21143976099995,sao luis,MA
42805,-12.709961846208618,-38.3350285352459,camacari,BA
84043,-25.13814446601066,-50.15981557048882,ponta grossa,PR
15685,-20.0015865,-50.37840674999998,ouroeste,SP
1445,-23.573187460730544,-46.68804831917596,sao paulo,SP
5657,-23.619752585878484,-46.7165794740683,sao paulo,SP
74320,-16.693385125999953,-49.31138999999996,goiânia,GO
29090,-20.26253574271452,-40.26769076490286,vitoria,ES
11701,-24.00128878489817,-46.41380812406943,praia grande,SP
13178,-22.81111098389983,-47.19621568526743,sumare,SP
29041,-20.309494455870983,-40.31444450969937,vitoria,ES
9061,-23.64994689953254,-46.55658679600668,santo andre,SP
11250,-23.8171547499328,-46.04378985092368,bertioga,SP
20961,-22.899890922297804,-43.26419303996194,rio de janeiro,RJ
6341,-23.569558658077785,-46.8176995424064,carapicuiba,SP
61942,-3.891033363781371,-38.68184151077147,maranguape,CE
6843,-23.658831533729536,-46.861262119077765,embu,SP
24813,-22.74693559024803,-42.85979929486989,itaboraí,RJ
40170,-13.009797368078308,-38.50740212881733,salvador,BA
88802,-28.684976904433576,-49.37531334395183,criciuma,SC
89888,-27.0738338662357,-53.2505094184298,caibi,SC
97576,-30.88593212377332,-55.51367751557873,santana do livramento,RS
11930,-24.716874006254045,-47.886661243263234,pariquera-acu,SP
28635,-22.2268455,-42.521301,nova friburgo,RJ
35640,-19.2302451741316,-45.007985412707846,pompeu,MG
91030,-30.008937762132906,-51.167224990564925,porto alegre,RS
15140,-20.73573992627586,-49.581263547905344,bálsamo,SP
67113,-1.378239584801245,-48.41339174433804,ananindeua,PA
86600,-23.31241314351824,-51.37243141605538,rolandia,PR
14071,-21.112492336949565,-47.79959632638933,ribeirao preto,SP
28909,-22.892533639667068,-42.04758742059878,cabo frio,RJ
13214,-23.15787712882147,-46.91553640108952,jundiai,SP
26545,-22.805293500000005,-43.40029500000001,nilopolis,RJ
6813,-23.65245803586348,-46.80765888187691,embu das artes,SP
58084,-7.171653069940564,-34.912930468636404,joao pessoa,PB
16670,-22.09631268722842,-49.44243527779486,presidente alves,SP
37200,-21.23649155092621,-45.006248975301496,lavras,MG
28570,-21.76219546054129,-42.17419150717431,itaocara,RJ
85055,-25.373686356396608,-51.46714222785511,guarapuava,PR
39100,-18.23877990047667,-43.61031703519593,diamantina,MG
17380,-22.2788366543456,-48.12338759844922,brotas,SP
4538,-23.588296502077466,-46.68531787177562,sao paulo,SP
98920,-27.620763960979563,-54.31200715976267,horizontina,RS
14940,-21.76265105636412,-48.82575224373753,ibitinga,SP
39800,-17.85205334586083,-41.51300154689263,teofilo otoni,MG
39563,-16.096760743458475,-41.74684317606399,santa cruz de salinas,MG
65046,-2.545321452680464,-44.24041475728546,sao luis,MA
35500,-20.117572523636102,-44.88805973685134,divinópolis,MG
3554,-23.537412241185315,-46.50231889148247,são paulo,SP
14070,-21.10775952178431,-47.79258249708582,ribeirao preto,SP
22210,-22.92869889647412,-43.1741496998384,rio de janeiro,RJ
35700,-19.43134844303573,-44.24605320405232,sete lagoas,MG
14407,-20.49073175894003,-47.41324086102571,franca,SP
86990,-23.48214910970004,-51.80321454531304,marialva,PR
39260,-17.599436472419306,-44.73430268677215,varzea da palma,MG
18705,-23.095506782963223,-48.93319434031496,avare,SP
85851,-25.5346522976705,-54.58707354694472,foz do iguacu,PR
85856,-25.53511859561313,-54.56289903081603,foz do iguacu,PR
3404,-23.53883304662705,-46.54960490230249,sao paulo,SP
74633,-16.665617999999945,-49.23192049999996,goiania,GO
91060,-30.00433934722135,-51.14820051526343,porto alegre,RS
19802,-22.67310541271851,-50.42734920843674,assis,SP
70760,-15.753382891891206,-47.89447277234953,brasilia,DF
6033,-23.56212317142886,-46.78045124153304,osasco,SP
1331,-23.561652981678133,-46.65060357230651,sao paulo,SP
7092,-23.464253210658427,-46.54598022814358,guarulhos,SP
70660,-15.80629326097204,-47.93854017816524,brasília,DF
78890,-12.54814432571492,-55.73242465672482,sorriso,MT
32145,-19.884335473883045,-44.04445716033765,contagem,MG
45520,-13.889679999999942,-38.945209999999975,maraú,BA
45780,-15.651953050151532,-40.05889363173053,itarantim,BA
9760,-23.69194353937633,-46.541697284706885,sao bernardo do campo,SP
28930,-22.970303413266777,-42.028503638207695,arraial do cabo,RJ
35430,-20.403396563010784,-42.88991687848708,ponte nova,MG
11454,-23.94366910893028,-46.284355223337634,guaruja,SP
32400,-20.02858240837843,-44.05446872156016,ibirite,MG
36048,-21.690713304749245,-43.34628389938831,juiz de fora,MG
87020,-23.414725191934817,-51.94535111342139,maringa,PR
3280,-23.58436484263371,-46.53653445100703,sao paulo,SP
78850,-15.560210683636644,-54.295742236926415,primavera do leste,MT
20735,-22.902460868717192,-43.285765562727214,rio de janeiro,RJ
81315,-25.50257325116008,-49.32141686045444,curitiba,PR
20211,-22.91253171135093,-43.19877177309717,rio de janeiro,RJ
29906,-19.361943000000004,-40.04564175,linhares,ES
91230,-30.021212221478475,-51.12240267389912,porto alegre,RS
7180,-23.449978988467773,-46.464820096712245,guarulhos,SP
25976,-22.399983897787514,-42.96183161105224,teresopolis,RJ
89300,-26.129534388930075,-49.80640823069365,mafra,SC
5206,-23.402044210459955,-46.76694574161575,são paulo,SP
22250,-22.939729008338546,-43.17478254051019,rio de janeiro,RJ
18085,-23.47759758635883,-47.4296367409235,sorocaba,SP
15170,-20.626469239279267,-49.64625514667502,tanabi,SP
5641,-23.619406809048414,-46.739004993479135,sao paulo,SP
86050,-23.33426612948585,-51.17460198496812,londrina,PR
18706,-23.0835757778974,-48.92900726507656,avare,SP
78820,-15.951985306789764,-54.97301581077893,jaciara,MT
4003,-23.57085285163541,-46.649974897209255,sao paulo,SP
6341,-23.574205287390303,-46.81733306284551,carapicuiba,SP
14815,-21.95529118360563,-47.99635108923774,ibate,SP
29900,-19.39248903957344,-40.07003807804762,linhares,ES
50791,-8.081064535965211,-34.970835650864124,recife,PE
9310,-23.67062116763806,-46.45067352495831,maua,SP
28890,-22.51767184383053,-41.936222424420606,rio das ostras,RJ
96835,-29.74098482583089,-52.42736908372491,santa cruz do sul,RS
78175,-16.26373331841873,-56.62715720290693,poconé,MT
37790,-22.05767135524146,-46.439468978065634,ibitiúra de minas,MG
12423,-22.94906093752712,-45.501509303680265,pindamonhangaba,SP
4429,-23.682696768249752,-46.65845154662705,sao paulo,SP
97010,-29.69019219840301,-53.834920083911776,santa maria,RS
1007,-23.54917739938832,-46.63863497209885,sao paulo,SP
89677,-27.17334434262724,-51.732454999948935,jabora,SC
41680,-12.954636203621048,-38.40296032278442,salvador,BA
12916,-22.974149598389985,-46.54329082070518,braganca paulista,SP
21331,-22.869231065785623,-43.36245180238331,rio de janeiro,RJ
5863,-23.67328288343239,-46.76566491672922,sao paulo,SP
59655,-4.960484566241286,-37.13433881403624,areia branca,RN
22450,-22.987567780743223,-43.22975330267176,rio de janeiro,RJ
13617,-22.19411821819669,-47.36399511224047,leme,SP
4723,-23.64524193228113,-46.70359922952856,sao paulo,SP
5021,-23.53417066971553,-46.68508661102769,sao paulo,SP
75906,-17.803498830022523,-50.92421258335352,rio verde,GO
4331,-23.65410704801203,-46.65027344379366,sao paulo,SP
6033,-23.557468694756032,-46.7803394982531,osasco,SP
4347,-23.640892721622706,-46.6515016969242,sao paulo,SP
24800,-22.73430098905204,-42.84818345620813,itaborai,RJ
35420,-20.36830169969416,-43.42110251249348,mariana,MG
8320,-23.630183209861805,-46.47579945352368,sao paulo,SP
37044,-21.56096385798237,-45.42623310369245,varginha,MG
12602,-22.72274255037795,-45.12394158243404,lorena,SP
80610,-25.4682174343586,-49.29257008465574,curitiba,PR
5038,-23.514636762132906,-46.69990964862371,sao paulo,SP
20920,-22.89029027032722,-43.232642351636095,rio de janeiro,RJ
2552,-23.499531303364265,-46.6628554067459,sao paulo,SP
85504,-26.211108233253373,-52.66677147637772,pato branco,PR
13456,-22.755631342610755,-47.36839609527,santa bárbara d'oeste,SP
13940,-22.47136964880669,-46.60454644117769,aguas de lindoia,SP
20775,-22.898254358041385,-43.27785938718328,rio de janeiro,RJ
4402,-23.666624025535224,-46.66265147155059,sao paulo,SP
84400,-25.30924863276412,-51.16754861912181,prudentopolis,PR
1254,-23.541353224536888,-46.68224086164805,são paulo,SP
6150,-23.56810954426111,-46.806881620462754,osasco,SP
5006,-23.53440570690752,-46.66653798389982,sao paulo,SP
44713,-11.411778381303268,-40.1239116917418,quixabeira,BA
95560,-29.33861358661046,-49.73609522697412,torres,RS
80320,-25.461844933216863,-49.291880450827286,curitiba,PR
27910,-22.37693313327821,-41.77818334823391,macae,RJ
89220,-26.271522199001662,-48.87955311226844,joinville,SC
5204,-23.40795736219633,-46.752460605891805,são paulo,SP
17230,-22.239811321516505,-48.71866335519276,itapui,SP
8597,-23.499550887494525,-46.35747839310655,itaquaquecetuba,SP
94010,-29.930670220093493,-50.99844133804608,gravatai,RS
5728,-23.63280320739602,-46.739237617304966,sao paulo,SP
28908,-22.92469043585749,-42.03806053317038,cabo frio,RJ
29147,-20.33359370402645,-40.39195231125467,cariacica,ES
3429,-23.55359217707312,-46.53231646225974,sao paulo,SP
89896,-27.168797514354413,-53.71487458459541,itapiranga,SC
4142,-23.611654194010004,-46.63258761587511,sao paulo,SP
5892,-23.659451580904843,-46.78812545337294,sao paulo,SP
3057,-23.539364035807004,-46.59655738856826,sao paulo,SP
4606,-23.61560313044608,-46.66951181848347,são paulo,SP
4781,-23.68753366720537,-46.70331317790984,sao paulo,SP
13426,-22.76016310436259,-47.622815669311485,piracicaba,SP
17670,-22.072366946901607,-50.30548821848956,quintana,SP
12301,-23.2659328905296,-45.938402723020815,jacarei,SP
7241,-23.44306734693289,-46.42543701526345,guarulhos,SP
12420,-22.94497835288939,-45.46371952947366,pindamonhangaba,SP
13073,-22.88330378711986,-47.06518216610886,campinas,SP
97060,-29.69592871351098,-53.80021150218307,santa maria,RS
29750,-19.22336638389833,-40.85299698708976,pancas,ES
37470,-22.138894706450483,-45.05599923820808,sao lourenco,MG
23093,-22.8800475,-43.53703424999999,rio de janeiro,RJ
85802,-24.96425058670457,-53.4694692470137,cascavel,PR
37557,-22.26191281145908,-45.92391757923607,pouso alegre,MG
27285,-22.485632521236045,-44.0983938506838,volta redonda,RJ
85460,-25.45925195416302,-52.91703796024272,quedas do iguacu,PR
90850,-30.07098732416763,-51.21528320872517,porto alegre,RS
56906,-7.985290996251096,-38.31312031236368,serra talhada,PE
93819,-29.64128173265554,-50.99070491462901,sapiranga,RS
78780,-17.32101664434975,-53.22339997758102,alto araguaia,MT
36878,-20.975872307088924,-42.50986316314098,rosario da limeira,MG
37516,-22.44724492591775,-45.15842607562561,marmelopolis,MG
26050,-22.685332464082347,-43.4696708257501,nova iguacu,RJ
17780,-21.637253999999945,-51.00523099999997,lucelia,SP
87160,-23.340631500000004,-52.0897725,mandaguacu,PR
81530,-25.468716856223725,-49.22959817943904,curitiba,PR
96080,-31.753442158751263,-52.31597397945643,pelotas,RS
21853,-22.851768039125226,-43.49185952775692,rio de janeiro,RJ
32145,-19.88655449886064,-44.03392545534948,contagem,MG
6184,-23.53523385290549,-46.80645653012287,osasco,SP
26013,-22.74192105864224,-43.44318482249904,nova iguacu,RJ
60752,-3.8199195856168826,-38.561116640695694,fortaleza,CE
78780,-17.305991378323206,-53.22045479915676,alto araguaia,MT
81730,-25.510277317387683,-49.233065617561735,curitiba,PR
15104,-20.8695450839244,-49.306866861592106,são josé do rio preto,SP
31070,-19.887611606151605,-43.90181028267647,belo horizonte,MG
16360,-21.462168574360387,-49.945830761963535,avanhandava,SP
40110,-12.993881334518605,-38.51816470506885,salvador,BA
85960,-24.561091263847,-54.05832253213077,marechal candido rondon,PR
6656,-23.55823137358714,-46.92046309726,itapevi,SP
90010,-30.035017256188954,-51.23308601610017,porto alegre,RS
13454,-22.745397461752216,-47.38223071296472,santa bárbara d'oeste,SP
3031,-23.531433744688066,-46.62212765012247,sao paulo,SP
76974,-11.522804393945112,-61.01400666982812,espigao do oeste,RO
30855,-19.929767531507835,-44.01062694491884,belo horizonte,MG
85892,-24.85111943738544,-54.33511840029271,santa helena,PR
39401,-16.736823754919545,-43.87317928642739,montes claros,MG
78600,-15.884824428478396,-52.26744580643763,barra do garças,MT
75820,-18.31334591329525,-51.95946350872628,serranopolis,GO
45445,-13.945851,-39.10199175,camamu,BA
9185,-23.683506600611675,-46.54028264654624,santo andre,SP
79112,-20.44189627280871,-54.6624595696521,campo grande,MS
93228,-29.862899266922746,-51.11401495938541,sapucaia do sul,RS
84600,-26.23399954794279,-51.08908667782428,uniao da vitoria,PR
80240,-25.45272380806379,-49.288098995103546,curitiba,PR
5594,-23.581288477378965,-46.73986285928215,sao paulo,SP
87030,-23.417430267813025,-51.923060637607726,maringá,PR
13904,-22.712581980293155,-46.7704220342778,amparo,SP
29745,-19.106966999999948,-40.58535049999995,sao domingos do norte,ES
15650,-20.28743037842965,-50.40143964687346,estrela d'oeste,SP
4855,-23.76258479156327,-46.68490263099434,sao paulo,SP
15991,-21.62668631502177,-48.34351802169445,matao,SP
35171,-19.50870826051985,-42.63853768591443,coronel fabriciano,MG
24715,-22.79387694594656,-42.98754518697077,sao goncalo,RJ
17250,-22.07189650704825,-48.73938487572611,bariri,SP
78445,-12.874574999999949,-57.22099099999996,nova maringá,MT
20520,-22.924898424635074,-43.22477784277795,rio de janeiro,RJ
35790,-18.761492523304025,-44.431600664724655,curvelo,MG
40820,-12.927321077857185,-38.45836897937165,salvador,BA
88106,-27.59558112842502,-48.6442043168645,sao jose,SC
88133,-27.62827831927987,-48.65949188293721,palhoca,SC
89590,-26.92928735491813,-51.33544039939242,arroio trinta,SC
96201,-32.03605738263269,-52.086038082212994,rio grande,RS
13416,-22.71981355952456,-47.63934651001197,piracicaba,SP
9390,-23.662035548820384,-46.46139444915136,maua,SP
31330,-19.879887803768284,-43.99547431473256,belo horizonte,MG
21610,-22.87462984096028,-43.3733732510244,rio de janeiro,RJ
30550,-19.947749615875125,-43.98481037760399,belo horizonte,MG
28015,-21.77085215668903,-41.30754720306197,campos dos goytacazes,RJ
27345,-22.54474015985196,-44.17290478675191,barra mansa,RJ
8190,-23.48870639938831,-46.395040133360254,sao paulo,SP
1534,-23.56774373965611,-46.62621866362735,sao paulo,SP
62940,-5.107510600742004,-38.37109888249465,morada nova,CE
8121,-23.499675,-46.388967750000006,sao paulo,SP
69097,-3.0854165381412284,-59.9781454921125,manaus,AM
49260,-11.382317087917269,-37.661303020089285,umbauba,SE
76908,-10.874133867504876,-61.91765844675622,ji-paraná,RO
3182,-23.559645573403024,-46.59003264057362,sao paulo,SP
14200,-21.48013199106296,-47.55856051187956,sao simao,SP
13343,-23.09904751180099,-47.20574737745978,indaiatuba,SP
76330,-15.746565545513713,-49.33372353657385,jaragua,GO
27520,-22.46771795337295,-44.45944684041203,resende,RJ
34590,-19.883101003637456,-43.86519039388104,sabara,MG
90250,-29.97977109824576,-51.18657313976557,porto alegre,RS
99250,-28.709924600631982,-51.933757970246766,serafina correa,RS
63050,-7.21934577886338,-39.31676283245784,juazeiro do norte,CE
13100,-22.907438245080453,-47.04492782292686,campinas,SP
8031,-23.51364654094289,-46.42162145031453,são paulo,SP
13024,-22.890379675499663,-47.04695778769699,campinas,SP
20040,-22.90133128893754,-43.17839842853022,rio de janeiro,RJ
5735,-23.62812503587046,-46.74744640665665,sao paulo,SP
22431,-22.98365813543773,-43.22330539159804,rio de janeiro,RJ
7243,-23.439387489035727,-46.41021083819032,guarulhos,SP
90240,-29.99757812725256,-51.18870678839125,porto alegre,RS
24715,-22.79408191432689,-42.9961001659706,sao goncalo,RJ
17047,-22.34585654844471,-49.033164414940224,bauru,SP
93295,-29.85968641533497,-51.131735230635385,esteio,RS
12040,-23.027134619439003,-45.59401040107002,taubate,SP
38400,-18.90608569676272,-48.28986085880929,uberlandia,MG
39860,-17.844991518648197,-40.33490922010552,nanuque,MG
1022,-23.5444976297536,-46.631461751457095,sao paulo,SP
94075,-29.93427339439665,-51.06570454010617,gravatai,RS
15500,-20.427445771716435,-49.961515216251286,votuporanga,SP
7745,-23.380153517733987,-46.720272814221474,caieiras,SP
14405,-20.523219803620886,-47.40938715195519,franca,SP
84400,-25.211120796536267,-50.97257870164657,prudentopolis,PR
3416,-23.56381279635236,-46.54653168868278,sao paulo,SP
15997,-21.591906202608342,-48.36609710866176,matão,SP
24340,-22.93688696808813,-43.02606991840267,niterói,RJ
6850,-23.71291603875928,-46.84811474846383,itapecerica da serra,SP
58175,-6.48229100404457,-36.15404229364205,cuite,PB
95680,-29.36101261579081,-50.82372527644647,canela,RS
36406,-20.687604388326346,-43.794525416560816,conselheiro lafaiete,MG
6600,-23.52908975823993,-46.90296996555525,jandira,SP
4914,-23.67544952622771,-46.743919417161926,sao paulo,SP
4514,-23.599414886202347,-46.67362366097294,sao paulo,SP
11705,-24.04102241998472,-46.51150902857297,praia grande,SP
66085,-1.4324006378486072,-48.478077541689736,belem,PA
8535,-23.55147644504213,-46.39174807313813,ferraz de vasconcelos,SP
9842,-23.75121220003251,-46.58051295178523,são bernardo do campo,SP
21920,-22.79747858228982,-43.186090735501146,rio de janeiro,RJ
92990,-29.995994236759163,-51.304268755605264,eldorado do sul,RS
9550,-23.62312860649937,-46.55132033264193,sao caetano do sul,SP
7242,-23.437537376074783,-46.426221,guarulhos,SP
5202,-23.400710161809684,-46.74624204717531,sao paulo,SP
2224,-23.4861208529055,-46.57760261365343,são paulo,SP
35960,-19.95252405089192,-43.41014466237075,santa barbara,MG
83260,-25.82585542028724,-48.540338439716336,matinhos,PR
89887,-27.068706638435568,-53.16564994339924,palmitos,SC
14955,-21.629175124454505,-49.0762527973012,borborema,SP
3502,-23.535900838738574,-46.53821868665241,sao paulo,SP
33938,-19.834937761438784,-44.03797144890181,ribeirao das neves,MG
58043,-7.12559493319468,-34.83547142695505,joão pessoa,PB
81810,-25.51546982292687,-49.273769273385646,curitiba,PR
97030,-29.708608993406443,-53.834971565653824,santa maria,RS
35162,-19.482715841548,-42.57503816648408,ipatinga,MG
80520,-25.402674510675805,-49.2814445342778,curitiba,PR
16202,-21.28715959300589,-50.32952173009336,birigui,SP
7941,-23.2720970883107,-46.74744859132577,francisco morato,SP
88371,-26.859942033018324,-48.69236207052954,navegantes,SC
4623,-23.633143710802656,-46.678910688874105,são paulo,SP
4334,-23.66000771579432,-46.63944241479597,são paulo,SP
19901,-22.98912039133824,-49.86869280544172,ourinhos,SP
91330,-30.03678607351244,-51.15844379204831,porto alegre,RS
8582,-23.453401882019048,-46.36001236065733,itaquaquecetuba,SP
4339,-23.66646511656761,-46.64327175284206,sao paulo,SP
5616,-23.59262470552254,-46.71786722078597,sao paulo,SP
78670,-11.616895749489249,-50.6678377779829,sao felix do araguaia,MT
32280,-19.955552591940187,-44.05480688940533,contagem,MG
7152,-23.402745480001823,-46.46710137000044,guarulhos,SP
8270,-23.561429793236705,-46.45562471787179,sao paulo,SP
76810,-8.802955184128974,-63.88522651192675,porto velho,RO
5570,-23.60328834277795,-46.79712580405673,são paulo,SP
99615,-27.52196766470546,-52.88867764117651,trindade do sul,RS
14060,-21.132462457123868,-47.8071591762364,ribeirao preto,SP
5358,-23.57022599999999,-46.74984525000001,são paulo,SP
27265,-22.529742160424696,-44.13506233957529,volta redonda,RJ
14930,-21.99421796733972,-48.39323996832853,boa esperanca do sul,SP
35400,-20.386802913758185,-43.48654807485047,ouro preto,MG
18086,-23.448141275334496,-47.4542570153087,sorocaba,SP
24140,-22.87935350316705,-43.07657941100663,niteroi,RJ
45940,-17.686860472112027,-40.103837325887554,ibirapua,BA
6730,-23.63140845536244,-47.02340986611586,vargem grande paulista,SP
16403,-21.68941252839801,-49.741448217616224,lins,SP
7123,-23.440057208436727,-46.52828639578164,guarulhos,SP
3583,-23.557822019706844,-46.49565131640599,sao paulo,SP
89051,-26.907140879493088,-49.06703755764007,blumenau,SC
35180,-19.543777003441868,-42.65629849856204,timoteo,MG
21050,-22.88230241503768,-43.25368553157874,rio de janeiro,RJ
4209,-23.58553256924808,-46.60053009824576,sao paulo,SP
3591,-23.55027550375092,-46.47975299999999,sao paulo,SP
72115,-15.8316382654057,-48.061416331310895,brasília,DF
31260,-19.86082081626177,-43.93628643228112,belo horizonte,MG
40110,-12.990756843331123,-38.51957605547069,salvador,BA
8613,-23.54087180975066,-46.284581978784615,suzano,SP
17400,-22.22295626551973,-49.64084417406306,garça,SP
78643,-12.58692143964019,-52.2075825,querência,MT
6700,-23.611395049724088,-46.92846972099935,cotia,SP
30230,-19.920877042527124,-43.87805189454315,belo horizonte,MG
36420,-20.511645584671072,-43.70168386166615,ouro branco,MG
5662,-23.61177293794032,-46.72605424989643,são paulo,SP
27345,-22.545442172918182,-44.178429180535566,barra mansa,RJ
20260,-22.91922935636796,-43.21616492255761,rio de janeiro,RJ
58030,-7.11868045268046,-34.85556,joao pessoa,PB
5531,-23.578857240637053,-46.72116918872988,sao paulo,SP
86065,-23.303559165127893,-51.20674298069719,londrina,PR
20911,-22.89488738371336,-43.24256640716617,rio de janeiro,RJ
68695,-2.945733649195429,-48.95251674391768,tailandia,PA
48410,-10.591955766602991,-38.38923003405824,cicero dantas,BA
4114,-23.585214478215683,-46.62492202553523,são paulo,SP
53370,-7.99240208622321,-34.86413774421539,olinda,PE
38030,-19.76741845989382,-47.93635834041203,uberaba,MG
45600,-14.788565537976371,-39.27364880107223,itabuna,BA
36033,-21.78494573550116,-43.3612598052975,juiz de fora,MG
21043,-22.843253641121887,-43.25042277878132,rio de janeiro,RJ
26088,-22.7014003268422,-43.52154918513532,nova iguacu,RJ
45607,-14.814131846240397,-39.2754507850424,itabuna,BA
89164,-27.212790594494844,-49.64867935053957,rio do sul,SC
80820,-25.403709918402665,-49.28388202553524,curitiba,PR
18950,-23.06045174122184,-49.62561242250568,ipaussu,SP
7179,-23.40488423397196,-46.4188174365803,guarulhos,SP
75110,-16.338345677724654,-48.9446112354017,anapolis,GO
21040,-22.86025080598999,-43.25050542270183,rio de janeiro,RJ
36036,-21.768112416549176,-43.374609770927,juiz de fora,MG
37018,-21.54644063580095,-45.430569121399685,varginha,MG
92200,-29.960786535662773,-51.19468316374292,canoas,RS
2180,-23.51796174271452,-46.56586340175424,sao paulo,SP
13480,-22.563957143487823,-47.40402037330482,limeira,SP
14055,-21.151099496856443,-47.82680548814449,ribeirao preto,SP
35450,-20.24060676132641,-43.80423058146536,itabirito,MG
16370,-21.5430359784855,-49.852016059066486,promissao,SP
38061,-19.74669243381034,-47.95499508243406,uberaba,MG
12224,-23.1737188462404,-45.819649644468754,sao jose dos campos,SP
4829,-23.735100247850408,-46.70932596364474,sao paulo,SP
5319,-23.53794299027647,-46.72655990994855,são paulo,SP
51021,-8.12597547737896,-34.90077707882738,recife,PE
27534,-22.46062927477061,-44.44751209631252,resende,RJ
18130,-23.531102046627044,-47.13428649194992,são roque,SP
29025,-20.316759776515365,-40.352244202967285,vitória,ES
2522,-23.503095471002325,-46.65929399999999,sao paulo,SP
9690,-23.67000307966409,-46.59063753814426,sao bernardo do campo,SP
23811,-22.86321367300037,-43.76676811243416,itaguai,RJ
91350,-30.01842611878932,-51.1630195711813,porto alegre,RS
13386,-22.799068808754324,-47.30373935537221,nova odessa,SP
2967,-23.4795095836748,-46.7042313871833,sao paulo,SP
73850,-16.773047262017908,-47.61847009560966,cristalina,GO
9761,-23.709600055180708,-46.52735062694415,sao bernardo do campo,SP
3517,-23.54272514293956,-46.52957605176295,sao paulo,SP
4235,-23.612529342022523,-46.5919318238068,sao paulo,SP
38413,-18.933203933666107,-48.3135387223152,uberlandia,MG
13903,-22.707669394396653,-46.76731354010619,amparo,SP
39970,-15.994859578243668,-41.27899135683973,pedra azul,MG
40300,-12.967775100759482,-38.49425639983786,salvador,BA
4844,-23.753829332217705,-46.7031185774424,são paulo,SP
29730,-19.523459232664955,-41.00012547919934,baixo guandu,ES
83707,-25.525457591007527,-49.35641100430277,araucaria,PR
27197,-22.500924105411364,-44.014297710721,pinheiral,RJ
13844,-22.380108641051,-46.94710816986245,mogi guaçu,SP
14600,-20.579025882081822,-47.8648775352407,sao joaquim da barra,SP
58700,-7.027678392234306,-37.27754008908621,patos,PB
32400,-20.02863903803251,-44.06837428288889,ibirite,MG
65065,-2.490366624956349,-44.235303384228544,são luís,MA
2431,-23.48679758145193,-46.63704064160352,sao paulo,SP
37640,-22.857899753210788,-46.32484640694553,extrema,MG
64200,-2.9051837007438617,-41.77689987268771,parnaiba,PI
21921,-22.80681905190717,-43.18976702622771,rio de janeiro,RJ
4165,-23.62903517713912,-46.60452523714733,sao paulo,SP
55192,-7.952669372946295,-36.20472037037687,santa cruz do capibaribe,PE
8040,-23.501655649460428,-46.447072910352574,sao paulo,SP
12722,-22.56090651909233,-44.93839151226722,cruzeiro,SP
31130,-19.88569702553522,-43.93999220566677,belo horizonte,MG
25645,-22.539778939538053,-43.20964097724069,petropolis,RJ
13567,-22.007915999451736,-47.87417909088816,sao carlos,SP
13311,-23.26089749191767,-47.31819342854689,itu,SP
76360,-14.961262568519734,-49.56164848929052,itapaci,GO
14735,-20.80465633688785,-48.80888296407654,severinia,SP
13015,-22.90496526755725,-47.05879901762937,campinas,SP
76900,-10.874823100514106,-61.96919973362644,ji-paraná,RO
61920,-3.850193999999945,-38.61309499999996,maracanau,CE
13915,-22.69537518652988,-46.98948787081178,jaguariuna,SP
40385,-12.92864491365653,-38.47628802343977,salvador,BA
15480,-20.182316370378025,-49.34954580249804,orindiúva,SP
6663,-23.55981287489477,-46.9413085921582,itapevi,SP
35179,-19.41072418871052,-42.55142779069234,santana do paraiso,MG
95500,-29.83620157669317,-50.51561178391394,santo antonio da patrulha,RS
56760,-7.60283475153812,-37.31479073326887,tuparetama,PE
60325,-3.72593445406544,-38.54905734332621,fortaleza,CE
14050,-21.16495633247045,-47.823593986052366,ribeirão preto,SP
78060,-15.62615196943634,-56.05901178227778,cuiaba,MT
88348,-27.001842305520064,-48.65764290929359,camboriu,SC
45450,-13.744634700181257,-39.486110643439496,gandu,BA
28970,-22.873781500452893,-42.32767661267477,araruama,RJ
95560,-29.34108398609589,-49.7314064583712,torres,RS
18650,-22.73481047592607,-48.54364814444358,sao manuel,SP
34010,-20.101591031930003,-43.94173080455003,nova lima,MG
60541,-3.779775845402999,-38.59166001211217,fortaleza,CE
36025,-21.7742414568354,-43.358001998615,juiz de fora,MG
5716,-23.63044271579432,-46.73324003220033,sao paulo,SP
64160,-3.461808009012161,-42.36989225295363,luzilandia,PI
95050,-29.152292228577192,-51.17062584679886,caxias do sul,RS
9851,-23.71579032361936,-46.5936209783599,sao bernardo do campo,SP
18271,-23.34350029188949,-47.83987153301333,tatui,SP
64000,-5.08276280898836,-42.81497036638244,teresina,PI
23560,-22.893828747706177,-43.71586622176694,rio de janeiro,RJ
69065,-3.12941051457095,-60.00585191035259,manaus,AM
15015,-20.81705915703251,-49.38427950371075,sao jose do rio preto,SP
14057,-21.132176060505515,-47.84724780030584,ribeirao preto,SP
17340,-22.49332903129746,-48.56682796895873,barra bonita,SP
76100,-16.525169999999996,-50.38709850000001,sao luis de montes belos,GO
35570,-20.46138587530683,-45.42940625648238,formiga,MG
5009,-23.53776446601066,-46.67301911977027,sao paulo,SP
89620,-27.397961182749697,-51.22961783641774,campos novos,SC
86020,-23.316582456575603,-51.1632405,londrina,PR
29850,-18.37286723062012,-40.82884732364575,ecoporanga,ES
17830,-21.61515982253095,-51.16453406126266,florida paulista,SP
5048,-23.532374650845416,-46.69914443935026,sao paulo,SP
81530,-25.46576404939701,-49.22986490536092,curitiba,PR
36140,-21.842620175923702,-43.79232721237713,lima duarte,MG
11740,-24.16626720843672,-46.79120657576894,itanhaém,SP
26052,-22.67625444350974,-43.4480247387317,nova iguacu,RJ
11025,-23.978451719949263,-46.29684703774025,santos,SP
3454,-23.56099496578224,-46.514212849909306,sao paulo,SP
6364,-23.56640184518886,-46.83990558439432,carapicuiba,SP
29090,-20.261009536211027,-40.26071336955391,vitoria,ES
8715,-23.53134296352198,-46.18347266987824,mogi das cruzes,SP
89868,-26.92827178413921,-53.00954474277139,saudades,SC
65540,-3.5066507028986096,-42.56171244260968,santa quiteria do maranhao,MA
1403,-23.566278514102827,-46.650914084684814,sao paulo,SP
79081,-20.49991000943506,-54.63411344696765,campo grande,MS
35669,-19.444950496948053,-44.74354687657794,papagaios,MG
5890,-23.66485130835592,-46.78701886164807,sao paulo,SP
30220,-19.94232112877264,-43.92127393450283,belo horizonte,MG
66115,-1.4228998842690994,-48.485168250764616,belem,PA
74810,-16.697836846510665,-49.24320529264173,goiania,GO
35675,-19.974867243658053,-44.28501011682104,juatuba,MG
13700,-21.778950768171427,-47.09090129776047,casa branca,SP
4363,-23.64834679600667,-46.66778731724271,sao paulo,SP
22291,-22.94733898612154,-43.161786565641385,rio de janeiro,RJ
29900,-19.40236687919566,-40.06337716260701,linhares,ES
78520,-9.937516530416191,-54.91296841406712,guaranta do norte,MT
33805,-19.767019107132555,-44.08167158381903,ribeirao das neves,MG
39803,-17.88070242364482,-41.50902402661988,teofilo otoni,MG
9450,-23.73812320038664,-46.39415191479599,rio grande da serra,SP
37456,-22.00086449999999,-44.46110925000001,carvalhos,MG
38740,-18.95403541851118,-46.99207440655192,patrocinio,MG
9360,-23.68799020653812,-46.46032365138947,maua,SP
6408,-23.49659238050181,-46.88637607486702,barueri,SP
18540,-23.196811288446547,-47.52268959122089,porto feliz,SP
17511,-22.179728024778896,-49.96056673290345,marília,SP
87053,-23.46455426981569,-51.90689279508671,maringa,PR
13343,-23.09528303593104,-47.21222342655611,indaiatuba,SP
12233,-23.25992294926177,-45.88708191609124,sao jose dos campos,SP
34580,-19.88958878633642,-43.8510857914948,sabara,MG
98035,-28.645767996023054,-53.58007677843285,cruz alta,RS
11470,-23.958416860974737,-46.27781511000806,guaruja,SP
42700,-12.877780840412012,-38.30596267110052,lauro de freitas,BA
12305,-23.283296878071496,-45.94725913313695,jacarei,SP
89500,-26.791952992168024,-51.0141969763451,cacador,SC
3736,-23.511671769086465,-46.51538094601535,sao paulo,SP
13574,-22.0360180335853,-47.8977882223152,sao carlos,SP
2678,-23.4538210269202,-46.66252140605342,sao paulo,SP
15055,-20.7967560864986,-49.36866433196034,sao jose do rio preto,SP
84168,-24.766660600362844,-50.00357747263163,castro,PR
37500,-22.42277572909797,-45.45470851342441,itajuba,MG
5059,-23.532714723007675,-46.71185022300767,sao paulo,SP
30882,-19.8750115965478,-44.01412544107506,belo horizonte,MG
89560,-27.0052521996328,-51.146528047548784,videira,SC
99830,-27.58806456227401,-52.10001088349431,gaurama,RS
8588,-23.43486357578132,-46.322941869908405,itaquaquecetuba,SP
2214,-23.49514224839868,-46.58715364126611,sao paulo,SP
49830,-9.971380532879076,-37.083407981783104,gararu,SE
63030,-7.219758445939574,-39.30835745502237,juazeiro do norte,CE
5684,-23.60956599446007,-46.70598625604473,são paulo,SP
89112,-26.94029777872952,-48.96107297299721,gaspar,SC
15070,-20.821740832881,-49.36430201658624,sao jose do rio preto,SP
38320,-18.854054093861723,-50.13521750248503,santa vitoria,MG
14057,-21.13610044823706,-47.8485304103526,ribeirão preto,SP
25755,-22.35301660822829,-43.165744630186246,petrópolis,RJ
85909,-24.7489090166322,-53.71627598399733,toledo,PR
7178,-23.39904600000001,-46.39418775,guarulhos,SP
33015,-19.76456818252492,-43.84359244245547,santa luzia,MG
4685,-23.660294931704204,-46.6959243569162,são paulo,SP
40350,-12.943064968779456,-38.47845316745506,salvador,BA
18086,-23.424155717179307,-47.417069655981294,sorocaba,SP
50720,-8.055514707744235,-34.91531440521669,recife,PE
13295,-23.1483690767188,-47.11824542301562,itupeva,SP
18103,-23.41336401373444,-47.414433331680485,sorocaba,SP
3336,-23.554343504299176,-46.56094154385708,sao paulo,SP
3378,-23.57071789869582,-46.54217756050551,sao paulo,SP
2918,-23.49668939938832,-46.71467458826242,são paulo,SP
26153,-22.707947080517428,-43.42154900002886,belford roxo,RJ
26525,-22.807100853228143,-43.41815463966357,nilópolis,RJ
89888,-27.075475422989093,-53.2566337787998,caibi,SC
30672,-20.02308378573488,-44.02844610268915,belo horizonte,MG
9290,-23.64852420843673,-46.513422645421066,santo andre,SP
3052,-23.54229281848348,-46.60839285553122,são paulo,SP
56820,-7.802262644489368,-37.79168130675038,caraiba,PE
8575,-23.49644263333461,-46.358590272164456,itaquaquecetuba,SP
88340,-27.02316092315781,-48.64921313036202,camboriu,SC
13630,-21.99771458028112,-47.429886554730544,pirassununga,SP
89069,-26.7970450162234,-49.10083087396034,blumenau,SC
68742,-1.2773393158503563,-47.94654526601606,castanhal,PA
58273,-6.6521819999999465,-35.28909349999995,pedro regis,PB
40391,-12.935111888424036,-38.48506876824976,salvador,BA
2317,-23.45792052178431,-46.59190074271453,sao paulo,SP
12570,-22.851206978908177,-45.2251261157309,aparecida,SP
24358,-22.95265601610016,-43.08819250955063,niteroi,RJ
91787,-30.16056249317301,-51.17559299999999,porto alegre,RS
96060,-31.728769313347584,-52.33446982168612,pelotas,RS
81910,-25.53200470967748,-49.2605905963125,curitiba,PR
72812,-16.241949000000005,-47.95081425000001,luziania,GO
2881,-23.46676163281201,-46.67633112031853,sao paulo,SP
7062,-23.46036598612153,-46.55858473327947,guarulhos,SP
95670,-29.37675053231589,-50.88325481127011,gramado,RS
48730,-11.561951306056027,-39.28567530425431,conceicao do coite,BA
86701,-23.449083972352124,-51.42725968318001,arapongas,PR
12611,-22.743464335090177,-45.134539160429895,lorena,SP
95240,-28.68081728837348,-51.36141540239205,ipe,RS
6449,-23.539957802349107,-46.86366858804661,barueri,SP
44076,-12.25359241993188,-38.940814540106174,feira de santana,BA
7794,-23.41904105124146,-46.82502758207263,cajamar,SP
22795,-23.01822457868313,-43.46034018151653,rio de janeiro,RJ
7063,-23.455253043020363,-46.55353377407812,guarulhos,SP
62480,-3.467241113490753,-40.68206177963219,moraujo,CE
9619,-23.66548733086139,-46.56638500484743,sao bernardo do campo,SP
13550,-22.128875174833343,-47.66486593876582,analandia,SP
18071,-23.472207,-47.50827098889148,sorocaba,SP
4606,-23.61873290896761,-46.67334181112589,sao paulo,SP
70078,-15.801637600323229,-47.88247560268915,brasilia,DF
25922,-22.614168928577783,-43.17765210373791,mage,RJ
55540,-8.673227902983975,-35.58416660512438,palmares,PE
49035,-10.96712182791854,-37.04299028602336,aracaju,SE
85575,-25.703673532604483,-52.92288470125746,sao jorge d'oeste,PR
90550,-30.009958930896147,-51.192763272260464,porto alegre,RS
29166,-20.151072841471485,-40.27515216257922,serra,ES
40210,-13.003736628488184,-38.502649431539325,salvador,BA
79490,-19.39511357550634,-54.57404187187415,sao gabriel do oeste,MS
20270,-22.91587026144041,-43.22396428183975,rio de janeiro,RJ
4742,-23.651076080210267,-46.700125194696206,sao paulo,SP
21875,-22.874515910352585,-43.45327016374292,rio de janeiro,RJ
40252,-12.983381999999995,-38.48851800000001,salvador,BA
9791,-23.74420326613353,-46.52766892162726,sao bernardo do campo,SP
35494,-20.66269130649125,-44.33083511226149,desterro de entre rios,MG
12321,-23.299081274344346,-45.98343709676939,jacareí,SP
13050,-22.937800892319185,-47.097778678458106,campinas,SP
85065,-25.383009246753893,-51.453491130013376,guarapuava,PR
13473,-22.71439558076792,-47.310435888061726,americana,SP
30320,-19.975358840671813,-43.941489563563934,belo horizonte,MG
14026,-21.21050974493623,-47.817865875382296,ribeirão preto,SP
4836,-23.746658898695827,-46.71401565528881,são paulo,SP
2563,-23.4911251357262,-46.66117757729816,sao paulo,SP
35790,-18.76162550532109,-44.433218855984265,curvelo,MG
29460,-21.12539320100564,-41.66803200801285,bom jesus do norte,ES
80215,-25.441605033034723,-49.25907422585538,curitiba,PR
68180,-4.271654648739456,-55.98347355830944,itaituba,PA
76510,-14.529867624175566,-49.961521654215,crixas,GO
35270,-18.66008959332344,-41.4048822816526,mendes pimentel,MG
13904,-22.71585360061168,-46.76965084194122,amparo,SP
59200,-6.225737549851638,-36.02307872667854,santa cruz,RN
37640,-22.86008924009592,-46.31770673777296,extrema,MG
22450,-22.979433594494846,-43.22761354010618,rio de janeiro,RJ
86690,-22.83502032302808,-51.964540835644,colorado,PR
94470,-30.08765128596137,-51.09185065683811,viamao,RS
38810,-19.1981273010831,-46.23701552387988,rio paranaiba,MG
57052,-9.629585659884778,-35.73745094070408,maceio,AL
2210,-23.48277755759132,-46.58191282223438,sao paulo,SP
72650,-15.921921255337326,-48.052077851029495,brasília,DF
7260,-23.45808219845288,-46.41241076403455,guarulhos,SP
13550,-22.12773006980262,-47.664108957059554,analandia,SP
84603,-26.230595711688824,-51.06050701820212,uniao da vitoria,PR
13179,-22.82349411787144,-47.16825064002664,sumare,SP
5819,-23.66510025950718,-46.73498245420966,sao paulo,SP
3237,-23.591852947544563,-46.553181532748575,sao paulo,SP
8730,-23.537396263104203,-46.20417721049596,mogi das cruzes,SP
44001,-12.255488221414256,-38.962591383446494,feira de santana,BA
12942,-23.114538000000003,-46.53098999999999,atibaia,SP
35550,-20.468492588834632,-45.123436053091126,itapecerica,MG
9450,-23.752621422148497,-46.39342438881972,rio grande da serra,SP
63020,-7.219053176743268,-39.31022222935731,juazeiro do norte,CE
24230,-22.90774156396796,-43.11122017000399,niteroi,RJ
20560,-22.918628251745545,-43.267432170408014,rio de janeiro,RJ
29025,-20.31489273583955,-40.354607541575,vitoria,ES
91060,-30.00409421065843,-51.142461994575655,porto alegre,RS
26900,-22.46014225094822,-43.48193853240488,miguel pereira,RJ
2914,-23.50490586511052,-46.70793093741701,sao paulo,SP
1454,-23.581920865398978,-46.68592710629584,são paulo,SP
85808,-24.949282829043707,-53.51262404636724,cascavel,PR
89278,-26.434478786713424,-49.244499613636656,corupa,SC
79036,-20.43253944000233,-54.55607350155336,campo grande,MS
7043,-23.48460494532287,-46.55256163780367,guarulhos,SP
7700,-23.34716600089876,-46.76494041240351,caieiras,SP
4709,-23.63497713405276,-46.69503623189446,sao paulo,SP
22470,-22.961690641987264,-43.21469910684408,rio de janeiro,RJ
28026,-21.778167671173065,-41.330662242209065,campos dos goytacazes,RJ
44056,-12.228939929366952,-38.94979521669003,feira de santana,BA
76820,-8.747589654225047,-63.87113763519871,porto velho,RO
13560,-22.00599950346245,-47.89360375145708,sao carlos,SP
21221,-22.84850873855958,-43.313553723555934,rio de janeiro,RJ
19906,-22.987236551214675,-49.88600633873857,ourinhos,SP
6462,-23.486998904143025,-46.81494337552627,barueri,SP
35162,-19.47051928336896,-42.5694864919499,ipatinga,MG
30411,-19.923176179294828,-43.96084853220033,belo horizonte,MG
35030,-18.870292877418134,-41.956254109685176,governador valadares,MG
9850,-23.733168935339545,-46.57955881528082,sao bernardo do campo,SP
13208,-23.19210058728148,-46.90172395628713,jundiaí,SP
35170,-19.48607061432718,-42.62254202268664,coronel fabriciano,MG
12943,-23.131770915344244,-46.56731886150385,atibaia,SP
32605,-19.925322045242066,-44.18696508243405,betim,MG
9401,-23.70325628820608,-46.41013584751908,ribeirão pires,SP
25926,-22.64822678034179,-43.15946110982909,mage,RJ
57602,-9.411884879988037,-36.62383876640353,palmeira dos índios,AL
30662,-19.9864289866698,-44.04015354094288,belo horizonte,MG
38442,-18.641533281097075,-48.20906344172399,araguari,MG
98900,-27.854923639996045,-54.45461279312048,santa rosa,RS
58135,-7.014656098162526,-35.85718485275619,esperanca,PB
35182,-19.58160234389437,-42.64392110162103,timóteo,MG
78746,-16.497972000000004,-54.6482925,rondonopolis,MT
74330,-16.733060416093398,-49.30813806318768,goiania,GO
25240,-22.61947245494681,-43.30981509136779,duque de caxias,RJ
6660,-23.5500881708192,-46.9598518500666,itapevi,SP
37501,-22.42929790854652,-45.43781552683722,itajuba,MG
45051,-14.844112287548713,-40.85872259362418,vitoria da conquista,BA
83025,-25.56014570921557,-49.21078370399467,são josé dos pinhais,PR
65067,-2.512374221621816,-44.24402722233256,sao luis,MA
76829,-8.770454594115453,-63.83773852775815,porto velho,RO
38412,-18.94190296783673,-48.31223760476991,uberlandia,MG
4546,-23.597408357204664,-46.68223464363205,sao paulo,SP
17930,-21.386115262030348,-51.58073841286507,tupi paulista,SP
4078,-23.607957417253445,-46.65793901868805,sao paulo,SP
18136,-23.55799949486411,-47.14660542783773,sao roque,SP
20975,-22.894773390789968,-43.25096933611285,rio de janeiro,RJ
90520,-30.012450474609008,-51.17264427462639,porto alegre,RS
5060,-23.52625177667204,-46.70749703834674,sao paulo,SP
69313,2.84847139423172,-60.71751985164903,boa vista,RR
18611,-22.879874933666105,-48.43803572231519,botucatu,SP
87208,-23.66779255519141,-52.61200523373356,cianorte,PR
18140,-23.531552095082507,-47.141025348643126,são roque,SP
14150,-21.210434446306984,-47.61217973712106,serrana,SP
3262,-23.589792639188648,-46.54896928074324,sao paulo,SP
22221,-22.93130461143172,-43.18137193297363,rio de janeiro,RJ
36400,-20.679199952970983,-43.77474412128761,conselheiro lafaiete,MG
4161,-23.629041534277786,-46.61703149278664,são paulo,SP
25575,-22.765477228633344,-43.33167617446626,são joão de meriti,RJ
21230,-22.82369905024437,-43.31877427016664,rio de janeiro,RJ
37120,-21.5467158870499,-45.73084489109649,paraguacu,MG
35590,-20.022113256519344,-45.539229733419816,lagoa da prata,MG
28924,-22.86023113031298,-41.997439057997695,cabo frio,RJ
79670,-21.25425345562653,-52.03826798451712,brasilandia,MS
13480,-22.58081601735962,-47.39878589649064,limeira,SP
69901,-9.96038203595558,-67.79858060113216,rio branco,AC
48970,-10.458997787141632,-40.18556609515552,senhor do bonfim,BA
36180,-21.27270087424533,-43.176832075214286,rio pomba,MG
35501,-20.156184166439605,-44.899032181322816,divinopolis,MG
9510,-23.61370995030638,-46.57155940715119,sao caetano do sul,SP
18890,-23.45361731652991,-49.39960542609023,taguai,SP
15290,-21.068064551065632,-50.13798279311664,buritama,SP
16240,-21.63530076986789,-50.50294245526808,santópolis do aguapeí,SP
3167,-23.55643146211553,-46.5970012076,sao paulo,SP
20760,-22.875385614849787,-43.28335515313305,rio de janeiro,RJ
15703,-20.289623012069352,-50.53814271970018,jales,SP
14804,-21.76862893907002,-48.19530598370241,araraquara,SP
95340,-28.73731070547633,-51.69990071235054,nova bassano,RS
23055,-22.91363871135092,-43.576692756333166,rio de janeiro,RJ
13550,-22.12740634069851,-47.6612836903122,analandia,SP
9781,-23.72923511659628,-46.53848036049423,são bernardo do campo,SP
95520,-29.887420798344053,-50.26937456476664,osorio,RS
25250,-22.58240450715856,-43.30769167911315,duque de caxias,RJ
31130,-19.89652523090765,-43.94647409606157,belo horizonte,MG
22411,-22.9836004565756,-43.19771453427779,rio de janeiro,RJ
18650,-22.746681070809625,-48.567056838790855,sao manuel,SP
39473,-16.042146600041324,-43.55337281099699,cacarema,MG
87020,-23.41831040885568,-51.93565111382084,maringa,PR
58070,-7.147919923394333,-34.880992538576955,joao pessoa,PB
58038,-7.101031945322874,-34.83601878934155,joao pessoa,PB
17380,-22.286208310577628,-48.12109479739166,brotas,SP
83601,-25.458541607734933,-49.52616012180386,campo largo,PR
18108,-23.47631472502367,-47.40531579248343,sorocaba,SP
2942,-23.474916534277792,-46.724982600611696,sao paulo,SP
23065,-22.89000427232996,-43.63663825248558,rio de janeiro,RJ
2672,-23.461575024698497,-46.66632719095159,são paulo,SP
40730,-12.9376541961266,-38.45162158837981,salvador,BA
7261,-23.45267762792554,-46.40008501386321,guarulhos,SP
88040,-27.59653411615472,-48.528316890419546,florianopolis,SC
28300,-21.21695133226505,-41.878399648827305,itaperuna,RJ
4137,-23.61117366388716,-46.6209741268394,sao paulo,SP
74343,-16.73101658857657,-49.30118534230269,goiania,GO
61760,-3.870016604281927,-38.4656681632683,eusebio,CE
16020,-21.22510938995326,-50.44533015015293,araçatuba,SP
7810,-23.319648709897766,-46.76770662192329,franco da rocha,SP
14800,-21.80835047596235,-48.17709860728414,araraquara,SP
90010,-30.03484596020908,-51.23804533640522,porto alegre,RS
7140,-23.43095572522938,-46.49976297016561,guarulhos,SP
76200,-16.44129131697143,-51.12264076180791,iporá,GO
3525,-23.55209160782504,-46.51459027061566,são paulo,SP
13056,-22.971784119073515,-47.14163575395099,campinas,SP
20710,-22.90797136164807,-43.28061081098164,rio de janeiro,RJ
14409,-20.48860169293817,-47.40223825165464,franca,SP
5888,-23.67535061004675,-46.78985256841134,sao paulo,SP
35540,-20.701593781420875,-44.81823479192383,oliveira,MG
41820,-12.981185675543909,-38.4538444149402,salvador,BA
26574,-22.776377412131865,-43.40249554800695,mesquita,RJ
22411,-22.9799818312442,-43.203719087484,rio de janeiro,RJ
19050,-22.140052447642194,-51.40616850750184,presidente prudente,SP
3928,-23.607603922009343,-46.49729037468981,sao paulo,SP
6850,-23.716361147931213,-46.85135860491085,itapecerica da serra,SP
85650,-25.818765385114865,-53.48269167430737,santa izabel do oeste,PR
30730,-19.906301415103474,-43.9854103372484,belo horizonte,MG
13770,-21.53291399999999,-46.63980225,caconde,SP
35020,-18.86352411555992,-41.94082229880211,governador valadares,MG
12301,-23.26229458378024,-45.94152730129341,jacarei,SP
38640,-16.222396313521468,-46.00315679709768,riachinho,MG
91180,-30.00341953621104,-51.1086997142651,porto alegre,RS
7272,-23.46957310130417,-46.42562781196261,guarulhos,SP
35519,-19.87923429871207,-44.98215102276132,nova serrana,MG
12061,-23.00535965200941,-45.555147719208605,taubate,SP
13560,-22.01526770392093,-47.89835843539474,sao carlos,SP
94820,-29.986129728246365,-51.08494381343129,alvorada,RS
5458,-23.5372984365803,-46.71892114738294,sao paulo,SP
21530,-22.828750796814727,-43.353071056350565,rio de janeiro,RJ
21755,-22.88744675160132,-43.42025516680133,rio de janeiro,RJ
70804,-15.793881516244392,-47.84747756203472,brasília,DF
41760,-12.991812066333893,-38.44663059048414,salvador,BA
32020,-19.92866459089388,-44.09107776095563,contagem,MG
15240,-20.91229204406987,-49.77860122540301,nipoa,SP
25011,-22.79834865487945,-43.31395852302165,duque de caxias,RJ
90480,-30.023153917277487,-51.17645362046276,porto alegre,RS
79150,-21.63873662894346,-55.161343015349615,maracaju,MS
22610,-22.99528663670716,-43.27213469663575,rio de janeiro,RJ
15700,-20.264751814118576,-50.5343694759725,jales,SP
92020,-29.921878708292496,-51.17538888525007,canoas,RS
13338,-23.09159402844007,-47.18698821480451,indaiatuba,SP
25070,-22.78715179449721,-43.30625912794845,duque de caxias,RJ
21310,-22.88037549653755,-43.33558083527612,rio de janeiro,RJ
13466,-22.75185542164495,-47.32911704954826,americana,SP
38840,-18.99540361139471,-46.31276831257225,carmo do paranaiba,MG
87013,-23.423858905934647,-51.93771893121133,maringa,PR
4250,-23.621612510964265,-46.59726086081136,sao paulo,SP
45065,-14.880887041231048,-40.86887947284021,vitoria da conquista,BA
13423,-22.774139221137386,-47.58886668908684,piracicaba,SP
13301,-23.26172587036237,-47.287422688809926,itu,SP
31130,-19.894574943389635,-43.94823831141436,belo horizonte,MG
43700,-12.781097434358603,-38.39317536871719,simoes filho,BA
8090,-23.477607890097488,-46.42198385374221,sao paulo,SP
19570,-22.211783819718462,-51.30069607252671,regente feijo,SP
39403,-16.762904528997666,-43.86896234110449,montes claros,MG
5360,-23.56557583902704,-46.74309336095557,sao paulo,SP
2043,-23.49533893377784,-46.61471125689937,são paulo,SP
6775,-23.63947557902161,-46.80208735195194,taboao da serra,SP
35600,-19.744606182032133,-45.26077799110766,bom despacho,MG
17064,-22.303316555658075,-49.08567678005075,bauru,SP
29845,-18.54030950908724,-40.29908555959432,boa esperanca,ES
25212,-22.674788891784942,-43.24995937216615,duque de caxias,RJ
86430,-23.292327426155857,-50.080144899541565,santo antonio da platina,PR
11085,-23.947840037191977,-46.36872400331822,santos,SP
5308,-23.528087904812665,-46.74475687440136,sao paulo,SP
28026,-21.780497210514977,-41.3300835556036,campos dos goytacazes,RJ
95900,-29.46340082602284,-51.96377116973832,lajeado,RS
36515,-21.162150788894035,-42.80112218701217,guidoval,MG
13465,-22.746741223700177,-47.34246086081134,americana,SP
30510,-19.93578879519556,-43.98865930253561,belo horizonte,MG
2450,-23.498628736886147,-46.63755414931621,sao paulo,SP
72161,-15.825076121756766,-48.09022687668846,brasilia,DF
85853,-25.56014121281052,-54.57374577516014,foz do iguacu,PR
3186,-23.56726954731953,-46.5841802514571,sao paulo,SP
5889,-23.670927870102176,-46.79269461948181,sao paulo,SP
21331,-22.87154617262972,-43.36854121870851,rio de janeiro,RJ
69099,-3.0400319999999468,-59.94897649999996,manaus,AM
92310,-29.909151340178006,-51.18830938099085,canoas,RS
91740,-30.117320916314824,-51.2071428710522,porto alegre,RS
38020,-19.751920477074705,-47.943863474445344,uberaba,MG
37584,-22.15943297199289,-46.04248713002635,congonhal,MG
29850,-18.37723502501093,-40.827052500463154,ecoporanga,ES
78550,-11.854693695495088,-55.50185523199451,sinop,MT
35500,-20.171931100573524,-44.8490308131239,divinopolis,MG
18016,-23.499523886120592,-47.42394499077556,sorocaba,SP
41225,-12.93357697381794,-38.46090519738178,salvador,BA
9521,-23.610924,-46.57534148167813,sao caetano do sul,SP
57100,-9.53908085792999,-35.81130499229268,rio largo,AL
3105,-23.553853239800333,-46.62039193450283,são paulo,SP
88058,-27.442367496537543,-48.40907243880201,florianopolis,SC
76916,-11.176171242482576,-61.9048762914376,presidente medici,RO
3441,-23.546539519014352,-46.53581703344109,sao paulo,SP
66015,-1.4509574999999932,-48.50042175,belem,PA
6253,-23.495823953921217,-46.80196588080665,osasco,SP
96810,-29.71121930475659,-52.430482051569065,santa cruz do sul,RS
27281,-22.495187954757927,-44.10195008228983,volta redonda,RJ
96310,-32.028430713116734,-53.39162319419603,herval,RS
37810,-21.30312849821404,-46.79752274409489,guaranesia,MG
23070,-22.89228347100233,-43.57963467346645,rio de janeiro,RJ
4240,-23.62324043967923,-46.58491676624416,sao paulo,SP
23575,-22.90719625515516,-43.68714461527889,rio de janeiro,RJ
89281,-26.24207140184925,-49.3662664365898,são bento do sul,SC
8080,-23.48932054731954,-46.43091553719199,sao paulo,SP
18030,-23.50590292645274,-47.46270406757463,sorocaba,SP
18602,-22.894728990969945,-48.444129120084845,botucatu,SP
85890,-25.0301384301864,-54.24141277320504,missal,PR
13186,-22.883412356754032,-47.20863821431758,hortolandia,SP
8673,-23.540779711416945,-46.31659752219736,suzano,SP
57540,-9.118185299007378,-37.7231695259358,mata grande,AL
9780,-23.71509507913488,-46.53429590308037,sao bernardo do campo,SP
6260,-23.49820950764605,-46.78964941326677,osasco,SP
12244,-23.19853075714124,-45.93509208909914,sao jose dos campos,SP
3112,-23.55710906050551,-46.60454216472388,são paulo,SP
85988,-24.69902842012221,-54.24299067822463,entre rios do oeste,PR
60526,-3.752567535095156,-38.59550214766408,fortaleza,CE
37420,-21.84974278579793,-45.29986971980233,cambuquira,MG
72813,-16.234607503265902,-47.94682163265032,luziania,GO
4253,-23.61217732584107,-46.59736315029714,sao paulo,SP
22745,-22.93626407216228,-43.337709067863095,rio de janeiro,RJ
88790,-28.477540489784168,-48.770009957627735,laguna,SC
17213,-22.31267264548188,-48.57640017985329,jau,SP
37056,-21.574864484297763,-45.42504096281782,varginha,MG
79003,-20.466372928126194,-54.60095005329215,campo grande,MS
5564,-23.60319525368307,-46.789330168421145,sao paulo,SP
78031,-15.605794045903725,-56.113943145392966,cuiaba,MT
9530,-23.616038446295068,-46.57658848991619,sao caetano do sul,SP
1419,-23.55763202415024,-46.6628128477696,são paulo,SP
78700,-16.4671207013676,-54.62113400389514,rondonopolis,MT
1233,-23.53254317790984,-46.66017564418031,são paulo,SP
35932,-19.848006090135595,-43.17552572874694,joao monlevade,MG
4023,-23.59491958006812,-46.64288995989381,sao paulo,SP
21321,-22.887086147937715,-43.371616876088034,rio de janeiro,RJ
29345,-21.046416643973146,-40.83183911845136,marataizes,ES
13481,-22.60830607239273,-47.42151481442654,limeira,SP
78520,-9.950744835129605,-54.90729154729408,guarantã do norte,MT
23968,-22.962581917146224,-44.4400666676364,angra dos reis,RJ
6310,-23.51341800278423,-46.8365837861514,carapicuiba,SP
36950,-19.800819904648367,-41.71910719373913,ipanema,MG
5885,-23.67677652283572,-46.787701002265095,sao paulo,SP
25685,-22.50942797240961,-43.17657267131603,petropolis,RJ
38400,-18.92089678434992,-48.27347672078597,uberlandia,MG
28625,-22.28840886747847,-42.53683374617246,nova friburgo,RJ
68627,-3.017170598653753,-47.35054196219558,paragominas,PA
78335,-9.45554092854625,-59.22013846445304,colniza,MT
28460,-21.413523484975507,-42.19725269523461,miracema,RJ
89560,-27.00386076913115,-51.13470352104088,videira,SC
13309,-23.26845813956239,-47.2935903522852,itu,SP
16250,-21.55550324485622,-50.441775028663145,clementina,SP
93212,-29.810276619342403,-51.16901323697294,sapucaia do sul,RS
30150,-19.93739789731084,-43.93118295669117,belo horizonte,MG
8420,-23.548200401610018,-46.4236608506838,sao paulo,SP
57038,-9.63402780884881,-35.70172467510152,maceió,AL
17760,-21.7669755821428,-50.959672044897815,inubia paulista,SP
11701,-24.00554027638904,-46.425726128839,praia grande,SP
17990,-21.318182333857155,-51.83135541642363,pauliceia,SP
30210,-19.944982079375627,-43.91971465139368,belo horizonte,MG
83707,-25.54006448973951,-49.36154967565072,araucaria,PR
99890,-27.631144842378387,-51.80105078818321,maximiliano de almeida,RS
48450,-11.104338712824038,-38.515794178549406,cipo,BA
8390,-23.635044586733216,-46.44361280835593,são paulo,SP
37200,-21.24673513266778,-44.98687114738296,lavras,MG
99460,-28.5258072790664,-52.99380746346766,colorado,RS
85803,-24.996114,-53.46002025,cascavel,PR
89113,-26.932547252597665,-48.95691757514654,gaspar,SC
2721,-23.50251824508045,-46.675707658203,sao paulo,SP
79052,-20.49864299900232,-54.58943700049884,campo grande,MS
58301,-7.132106935511317,-34.98114615274517,santa rita,PB
8040,-23.50462211878932,-46.444611168619,são paulo,SP
72318,-15.862636745028066,-48.08460584659179,brasilia,DF
88380,-26.77007227876064,-48.68314458616236,balneário piçarras,SC
75064,-16.291462261591295,-48.96633583060182,anápolis,GO
74290,-16.704319905440627,-49.28072064885296,goiania,GO
94451,-30.079845756704017,-51.0612713230578,viamao,RS
4675,-23.671217325292808,-46.69832291964342,sao paulo,SP
27265,-22.51926196947312,-44.114644309740896,volta redonda,RJ
19970,-22.793168757300847,-50.21792616058439,palmital,SP
21810,-22.88098864028517,-43.45394989301168,rio de janeiro,RJ
13212,-23.1850146605682,-46.97046043686786,jundiai,SP
12237,-23.248428024698505,-45.918144497778286,sao jose dos campos,SP
8020,-23.504916216486805,-46.445472419095154,sao paulo,SP
69047,-3.057292623925205,-60.04634332944774,manaus,AM
36770,-21.38728844761365,-42.69171913950485,cataguases,MG
97105,-29.706739886394,-53.72381360806852,santa maria,RS
43850,-12.518890766353168,-38.48806550777716,sao sebastiao do passe,BA
17208,-22.272633,-48.56028318304575,jaú,SP
8725,-23.55431147317801,-46.18280923002057,mogi das cruzes,SP
14850,-21.34876279604216,-48.0863745920843,pradopolis,SP
85015,-25.40707466002068,-51.469942375642106,guarapuava,PR
58053,-7.155113846240394,-34.85240744379366,joao pessoa,PB
24240,-22.898913463788965,-43.09265249999999,niteroi,RJ
35582,-20.37283242123401,-45.65948126251678,pains,MG
38700,-18.58678616770409,-46.51182854336,patos de minas,MG
36400,-20.67036281998453,-43.76986675369085,conselheiro lafaiete,MG
4302,-23.62273347792723,-46.63916941326679,sao paulo,SP
39690,-17.843743643254218,-42.07855052501573,malacacheta,MG
8900,-23.411854445467103,-46.0343837828207,guararema,SP
58807,-6.772122376283155,-38.24014971703772,sousa,PB
4293,-23.622431201366727,-46.61261725904329,sao paulo,SP
4334,-23.66205379655492,-46.63608009714924,são paulo,SP
12903,-22.93538780322004,-46.56724035498297,bragança paulista,SP
13070,-22.899021338882807,-47.08366771510182,campinas,SP
35502,-20.143676063682097,-44.91986156368208,divinopolis,MG
35970,-19.948403368518104,-43.48680159986293,barao de cocais,MG
72225,-15.808977801241651,-48.12147650561209,brasilia,DF
6273,-23.499954997381423,-46.76692042707511,osasco,SP
27120,-22.457065131221505,-43.80066494794893,barra do pirai,RJ
13606,-22.358040338882805,-47.33094831043338,araras,SP
36152,-21.5366353637632,-43.19691531879825,goiana,MG
4014,-23.58484809714923,-46.644344177765625,são paulo,SP
91330,-30.03251458673322,-51.16069426409479,porto alegre,RS
15110,-20.78802621777544,-49.23069766333158,guapiacu,SP
37902,-20.732202314636904,-46.60814039348272,passos,MG
87025,-23.391047412530867,-51.92577775000544,maringa,PR
13476,-22.746603457123857,-47.25809163350449,americana,SP
36784,-21.316584586205288,-42.81129468455651,dona euzebia,MG
49027,-10.942297535634117,-37.06502091465175,aracaju,SE
8430,-23.52246952761269,-46.42749062323272,são paulo,SP
36200,-21.23547722645258,-43.775483904005135,barbacena,MG
12212,-23.1617217013421,-45.91032226698018,sao jose dos campos,SP
13092,-22.89551491173757,-47.02784732598529,campinas,SP
75690,-17.747012465115507,-48.63197162743493,caldas novas,GO
38407,-18.91540298261333,-48.2065533277981,uberlandia,MG
39873,-17.070261318770385,-40.71950056397592,machacalis,MG
74934,-16.763153877577974,-49.32047433666056,aparecida de goiania,GO
70380,-15.823246500000003,-47.92265775,brasilia,DF
33600,-19.617207930031714,-44.0530774620021,pedro leopoldo,MG
37137,-21.410212136727463,-45.9485365846222,alfenas,MG
25946,-22.53119379238857,-42.97961458677186,guapimirim,RJ
29830,-18.69658418368548,-40.401854177872345,nova venecia,ES
39600,-16.85095269886297,-42.05621961717909,aracuai,MG
78240,-15.756887999999948,-58.98271399999996,porto esperidiao,MT
4961,-23.7378844899017,-46.79171113572268,são paulo,SP
77895,-6.375760494986186,-47.6615027200662,nazare,TO
29170,-20.15135919207676,-40.26595231210682,serra,ES
88930,-28.92534409784267,-49.67921001340693,turvo,SC
90230,-30.0126797396561,-51.21129717236993,porto alegre,RS
3504,-23.54026803857696,-46.53728464695027,sao paulo,SP
86430,-23.29543565459468,-50.07958115417818,santo antonio da platina,PR
6786,-23.629078728836067,-46.81152060782504,taboão da serra,SP
7192,-23.45148372948619,-46.50799860005292,guarulhos,SP
41810,-12.993660502914182,-38.45391229294825,salvador,BA
74083,-16.686935394512954,-49.251966504425766,goiânia,GO
74423,-16.676994503153157,-49.314808421078,goiânia,GO
12233,-23.24232105828381,-45.88205144838129,sao jose dos campos,SP
36240,-21.462232964730443,-43.55569555114898,santos dumont,MG
18214,-23.578947582327423,-48.02489484017369,itapetininga,SP
17205,-22.294479824311853,-48.57115923827113,jau,SP
16402,-21.67335233611285,-49.72822429447746,lins,SP
5076,-23.522463094090817,-46.71143126686476,sao paulo,SP
4890,-23.82618499417161,-46.731493592561606,sao paulo,SP
13660,-21.86895332463772,-47.457340049373,porto ferreira,SP
27283,-22.49872852761269,-44.09006231848346,volta redonda,RJ
20231,-22.911184769283413,-43.18627522693397,rio de janeiro,RJ
89520,-27.2828207149576,-50.58611622814357,curitibanos,SC
25900,-22.65173679163069,-43.04421018138575,magé,RJ
83206,-25.526515082133404,-48.52514753245549,paranaguá,PR
3938,-23.59521575214959,-46.50600857216227,sao paulo,SP
18260,-23.176631391593084,-48.11643265618234,porangaba,SP
30320,-19.976616879277447,-43.94253679032253,belo horizonte,MG
8452,-23.53984195836461,-46.39389804454958,sao paulo,SP
28053,-21.749114212586232,-41.34868825814528,campos dos goytacazes,RJ
45300,-13.030183244365135,-39.59797943543194,amargosa,BA
84275,-24.252247611372702,-51.676062527951466,harmonia,PR
89900,-26.736668612816707,-53.52166504010617,sao miguel do oeste,SC
3730,-23.511723401610013,-46.54181881779098,sao paulo,SP
97070,-29.702919331121187,-53.81741018388245,santa maria,RS
96740,-30.10115120641725,-51.7312775715037,arroio dos ratos,RS
4015,-23.58573159562001,-46.64025857063306,sao paulo,SP
87980,-22.73015798013188,-52.88238351986812,itauna do sul,PR
8470,-23.598393066333884,-46.39867642131685,sao paulo,SP
25850,-22.15569375159259,-43.2909973486586,paraiba do sul,RJ
1314,-23.55643647071386,-46.64698166472388,são paulo,SP
13807,-22.41325367277396,-46.96010031917596,mogi mirim,SP
28820,-22.613598464733528,-42.40819594229109,silva jardim,RJ
72925,-15.705057229778244,-48.27981719019313,aguas lindas de goias,GO
32040,-19.91692216847327,-44.070286526649454,contagem,MG
8502,-23.54015711518264,-46.3581284454671,ferraz de vasconcelos,SP
35430,-20.418370774960003,-42.91618563687822,ponte nova,MG
37500,-22.426022097902635,-45.45343860838943,itajuba,MG
90620,-30.05680341825844,-51.19377736831317,porto alegre,RS
30520,-19.937297095475785,-44.02083848834323,belo horizonte,MG
58302,-7.154116031160276,-34.962141171966714,santa rita,PB
5856,-23.65230362170351,-46.782496220785966,sao paulo,SP
29190,-19.8204345077172,-40.27331096407461,aracruz,ES
5405,-23.55925330496024,-46.68029661309511,são paulo,SP
63490,-5.450569875956081,-38.46530385038242,jaguaribara,CE
39690,-17.835386134462333,-42.07476041172729,malacacheta,MG
22220,-22.92522593421437,-43.17837489078998,rio de janeiro,RJ
11740,-24.175268180654125,-46.78393912182627,itanhaem,SP
6767,-23.62283430030584,-46.78714113197528,taboao da serra,SP
58340,-7.100654712093934,-35.22948377879414,sape,PB
4821,-23.73078392906708,-46.68387076103866,sao paulo,SP
96330,-32.23456833698293,-53.077822140409545,arroio grande,RS
36301,-21.128424905072468,-44.24867114599798,sao joao del rei,MG
14051,-21.157884,-47.8372275,ribeirão preto,SP
3324,-23.55076108465575,-46.56481702914189,são paulo,SP
25935,-22.707857674324767,-43.161141748829166,mage,RJ
39403,-16.7539383075192,-43.87449230682671,montes claros,MG
19015,-22.11798384530973,-51.40129221717992,presidente prudente,SP
76821,-8.733692218856469,-63.86694595680567,porto velho,RO
25070,-22.779578231912115,-43.30362610099052,duque de caxias,RJ
89694,-26.84921067578238,-52.25940005399308,faxinal dos guedes,SC
32143,-19.910012527656946,-44.033895862193766,contagem,MG
3979,-23.61745121065843,-46.508555713572605,sao paulo,SP
32603,-19.963118126839404,-44.20726257077728,betim,MG
13212,-23.18544289931961,-46.96452955802009,jundiai,SP
13274,-22.97222351467938,-46.97351914612648,valinhos,SP
5815,-23.667417,-46.7379,são paulo,SP
82510,-25.38748505419496,-49.23392983661189,curitiba,PR
38660,-15.635611916621494,-46.42722639063541,buritis,MG
97542,-29.78751386307652,-55.80293835531209,alegrete,RS
26323,-22.72870711935441,-43.56036566696515,queimados,RJ
7063,-23.460003052455424,-46.56245146433721,guarulhos,SP
2513,-23.511266927001014,-46.65365386525476,sao paulo,SP
6865,-23.75529155000536,-46.78479374264265,itapecerica da serra,SP
88058,-27.44645313044608,-48.40903290758261,florianopolis,SC
80060,-25.42993023925207,-49.26325073604941,curitiba,PR
20241,-22.91825609853421,-43.18373511379766,rio de janeiro,RJ
5858,-23.68356087370886,-46.79774030780767,sao paulo,SP
83701,-25.59893144255497,-49.3909678539423,araucaria,PR
6385,-23.54488983253885,-46.8439570001402,carapicuiba,SP
75830,-17.557854664116853,-52.56495217497498,mineiros,GO
3924,-23.59679613765943,-46.50811226741303,sao paulo,SP
78360,-13.648930570893064,-57.88866754538779,campo novo do parecis,MT
68675,-2.0471530010281933,-47.56159358003783,mãe do rio,PA
96170,-31.37514854912684,-51.96022370974809,sao lourenco do sul,RS
25715,-22.470594931635688,-43.15426334399782,petropolis,RJ
35420,-20.367367177073124,-43.42374106745907,mariana,MG
13157,-22.64485981163644,-47.20892620952386,cosmopolis,SP
30494,-19.96806725728547,-43.95464217291818,belo horizonte,MG
39705,-18.540260516969724,-42.75132883486059,são joão evangelista,MG
56550,-8.9488089483747,-37.41860633972488,itaiba,PE
55590,-8.397679076317209,-35.063268805297504,ipojuca,PE
38183,-19.5945127841967,-46.93071175532584,araxa,MG
21331,-22.874026924779315,-43.369853192740585,rio de janeiro,RJ
1409,-23.557727074383973,-46.65545213587043,sao paulo,SP
36640,-21.8659064642226,-42.99216784795976,mar de espanha,MG
94110,-29.9120581470945,-51.0648413366611,gravatai,RS
86210,-23.25091895747286,-50.96945503080758,jataizinho,PR
14600,-20.58192758503992,-47.85543741852175,sao joaquim da barra,SP
18274,-23.364354107328406,-47.84274291857816,tatui,SP
28630,-22.24300140723044,-42.53771902522588,nova friburgo,RJ
26070,-22.714639239645905,-43.42719317878596,nova iguacu,RJ
28400,-21.63395538768909,-41.76731534687551,sao fidelis,RJ
30360,-19.96904160421836,-43.94868902360199,belo horizonte,MG
37950,-20.890830475658355,-47.00137895188452,sao sebastiao do paraiso,MG
95010,-29.171785334559143,-51.19915624762092,caxias do sul,RS
3591,-23.549920847625376,-46.47837635581969,sao paulo,SP
89178,-27.36903584012023,-49.89224421870753,braco do trombudo,SC
96212,-32.052790154679144,-52.12921344277155,rio grande,RS
89205,-26.306903556754595,-48.82843479433323,joinville,SC
24452,-22.82023502086988,-43.01486381456321,sao goncalo,RJ
38082,-19.75788144546709,-47.89993088773156,uberaba,MG
1234,-23.53650257063305,-46.66333765543304,sao paulo,SP
3707,-23.507222668330545,-46.54373357576896,sao paulo,SP
4508,-23.589251517629364,-46.6715131917883,sao paulo,SP
69301,2.8145663994351664,-60.673190261075874,boa vista,RR
60767,-3.82053147377229,-38.58199526894222,fortaleza,CE
97050,-29.69527148359836,-53.793202191989344,santa maria,RS
32017,-19.9106042355046,-44.09019550705265,contagem,MG
31540,-19.82030796058631,-43.98632255551384,belo horizonte,MG
31910,-19.86426241993188,-43.91550804662705,belo horizonte,MG
19801,-22.672130862085258,-50.40930112948952,assis,SP
25086,-22.787957630987304,-43.29355157360288,duque de caxias,RJ
17210,-22.27860124701369,-48.52439890980433,jau,SP
45810,-16.44146032369524,-39.06771563236953,porto seguro,BA
21862,-22.86435188530345,-43.46300740439825,rio de janeiro,RJ
99042,-28.247040430320062,-52.437980756923245,passo fundo,RS
90130,-30.050580594494843,-51.22475909908247,porto alegre,RS
74605,-16.673404434068487,-49.243764045186815,goiania,GO
13660,-21.8589094347662,-47.49125790237802,porto ferreira,SP
13320,-23.20352761143172,-47.29236559270582,salto,SP
37490,-21.89407189798332,-45.595665803152365,sao goncalo do sapucai,MG
62766,-4.261889999999937,-38.93053999999995,guaramiranga,CE
6864,-23.74818110221243,-46.795316803324,itapecerica da serra,SP
3278,-23.582095208436726,-46.54364002345774,sao paulo,SP
5404,-23.5679472603439,-46.690577874545575,são paulo,SP
6246,-23.498424926604766,-46.80368627935566,osasco,SP
75701,-18.172122667983505,-47.95147546647336,catalao,GO
23575,-22.880958527064426,-43.66127243213689,rio de janeiro,RJ
36081,-21.74494928504241,-43.380469534970274,juiz de fora,MG
4433,-23.68586424424374,-46.65588125575625,sao paulo,SP
89130,-26.911148227886752,-49.25264802806439,indaial,SC
7786,-23.3311417917602,-46.82668292891627,cajamar,SP
72210,-15.812889950215686,-48.10078833748069,brasilia,DF
6320,-23.52807061220859,-46.8358061465644,carapicuíba,SP
37800,-21.30484366971553,-46.71115672468112,guaxupe,MG
18550,-23.279070340692524,-47.68601961997713,boituva,SP
82970,-25.471753858445425,-49.20825953690351,curitiba,PR
24315,-22.90081847211762,-43.07447663564648,niteroi,RJ
15806,-21.138100585896503,-48.96273415084539,catanduva,SP
15500,-20.414135368288587,-49.96605815522483,votuporanga,SP
89500,-26.784007761047537,-50.97641841648885,cacador,SC
80810,-25.41894543075192,-49.29098324562872,curitiba,PR
5750,-23.6161693131768,-46.743222332932255,sao paulo,SP
7183,-23.445701182901505,-46.45881644379365,guarulhos,SP
78055,-15.546796092432736,-56.08063036973097,cuiaba,MT
16901,-20.896830155604885,-51.3782382914931,andradina,SP
5083,-23.534765015263435,-46.71807697085811,sao paulo,SP
12051,-23.003972042194327,-45.58728189130706,taubate,SP
29161,-20.23466628201264,-40.277845369726805,serra,ES
94090,-29.92289797085809,-51.04709911449015,gravatai,RS
23587,-22.965881444341967,-43.702123610854905,rio de janeiro,RJ
1217,-23.53154437745977,-46.64794638273988,sao paulo,SP
17290,-22.504174640898626,-48.71215751245552,macatuba,SP
18270,-23.34583271914424,-47.847789893519575,tatui,SP
35500,-20.13194166168916,-44.88789995967799,divinopolis,MG
6045,-23.574312471550588,-46.79113301053159,osasco,SP
11618,-23.784101952705484,-45.62302822070772,são sebastião,SP
96506,-30.040775897065664,-52.885604297992295,cachoeira do sul,RS
12902,-22.96046699975118,-46.54405152007963,bragança paulista,SP
58225,-6.759773063280335,-35.661145351560144,solânea,PB
26600,-22.62999321923357,-43.69986138222443,paracambi,RJ
88600,-28.29792240202869,-49.93671413335067,sao joaquim,SC
15046,-20.777040098169422,-49.39379621313334,sao jose do rio preto,SP
79116,-20.42747597723473,-54.63638643632049,campo grande,MS
5083,-23.53467869248079,-46.71936980059431,sao paulo,SP
36300,-21.13370554731954,-44.26131326019967,sao joao del rei,MG
38413,-18.93638711166752,-48.311459371269805,uberlândia,MG
30310,-19.947209574239743,-43.93256036845741,belo horizonte,MG
35970,-19.932704332340645,-43.48527861588372,barao de cocais,MG
89874,-26.783953952288115,-53.19374506843019,maravilha,SC
2034,-23.50473224562872,-46.62369396003804,sao paulo,SP
35672,-20.008420285001176,-44.4699611350124,azurita,MG
13506,-22.37041583207348,-47.539160418950914,rio claro,SP
18650,-22.737920239284,-48.57127719820247,sao manuel,SP
85010,-25.388529957527897,-51.4685336430838,guarapuava,PR
75907,-17.829459461690888,-50.926485045970935,rio verde,GO
7241,-23.44452722852714,-46.43262749339723,guarulhos,SP
7084,-23.426232034970283,-46.54455063197528,guarulhos,SP
20720,-22.908248727999336,-43.29335658549247,rio de janeiro,RJ
12530,-23.07558796563428,-44.95788421241348,cunha,SP
25850,-22.16596446082136,-43.30163652493797,paraiba do sul,RJ
4241,-23.622307103525863,-46.58758138190316,são paulo,SP
12238,-23.251349577846423,-45.92846774355123,sao jose dos campos,SP
31035,-19.90029823229852,-43.91668446932889,belo horizonte,MG
76520,-14.095711977009376,-50.3374231313095,nova crixas,GO
95400,-29.439683319637982,-50.58140940597602,sao francisco de paula,RS
30180,-19.93218458174156,-43.94410742714524,belo horizonte,MG
36900,-20.26396092386309,-42.03658127816626,manhuacu,MG
7856,-23.32137933335282,-46.702032619033695,franco da rocha,SP
29260,-20.356391047959203,-40.657617149744894,domingos martins,ES
70754,-15.753884705843037,-47.88908766893247,brasília,DF
78643,-12.594597260423871,-52.19768455472478,querencia,MT
78450,-13.808232041587372,-56.08994616522714,nova mutum,MT
24914,-22.8950979373096,-42.78974812321186,marica,RJ
11410,-24.00098988787578,-46.26670714683471,guaruja,SP
7600,-23.35053399916329,-46.54724491687344,mairipora,SP
84040,-25.10973721925677,-50.16149683651687,ponta grossa,PR
41710,-12.97439342578712,-38.4336689964148,salvador,BA
5861,-23.66939711518263,-46.77235297446478,são paulo,SP
7161,-23.3977601312828,-46.43546835345376,guarulhos,SP
95690,-29.60918780244479,-50.56782611139573,rolante,RS
38415,-18.889676287264106,-48.32944796655891,uberlandia,MG
35910,-19.452380113730506,-43.11213116660803,santa maria de itabira,MG
7152,-23.401854,-46.4769,guarulhos,SP
36280,-20.957427443506084,-43.812035135402255,carandai,MG
37044,-21.562652692123887,-45.42650703330559,varginha,MG
78575,-11.246747925367552,-57.51138572506786,juara,MT
98960,-27.82286444042293,-54.677187261691714,santo cristo,RS
30610,-19.971032112960927,-43.99692065306712,belo horizonte,MG
13482,-22.57172888980902,-47.44763866403139,limeira,SP
28013,-21.766189515614688,-41.31093914450896,campos dos goytacazes,RJ
78180,-15.86382544137396,-56.07758182672624,santo antonio do leverger,MT
88813,-28.686409727247987,-49.338582024667176,criciuma,SC
32672,-19.93774468581569,-44.17104540813088,betim,MG
79902,-22.50849934022019,-55.725364333662135,ponta pora,MS
21630,-22.828353024698508,-43.4154680523112,rio de janeiro,RJ
2518,-23.511444059897368,-46.66617891318112,são paulo,SP
5083,-23.5350116924808,-46.71930935166474,sao paulo,SP
14802,-21.77715125367879,-48.1873148484621,araraquara,SP
13500,-22.404104476542244,-47.566119897310834,rio claro,SP
35604,-19.836262168250165,-45.41662056841574,moema,MG
8340,-23.61910995614292,-46.458692072306505,sao paulo,SP
83324,-25.42943064167015,-49.18959873827112,pinhais,PR
36800,-20.73251720699563,-42.03213831734212,carangola,MG
35200,-19.49529842304707,-41.07565306184726,aimores,MG
78600,-15.884894031609448,-52.25638688434017,barra do garças,MT
3713,-23.51068719677997,-46.54587354302038,sao paulo,SP
78050,-15.582690275877225,-56.07098952135549,cuiabá,MT
71505,-15.735082537047756,-47.861704378152254,brasília,DF
30850,-19.920802473772284,-44.006763662357926,belo horizonte,MG
5857,-23.6570879742506,-46.78094112132679,sao paulo,SP
15047,-20.771672803033603,-49.403295541434666,são josé do rio preto,SP
35300,-19.791110364972024,-42.1455092970488,caratinga,MG
87702,-23.08819693364282,-52.48044261531343,paranavai,PR
35740,-19.75992052317926,-44.3113696080215,esmeraldas,MG
21511,-22.84017147884661,-43.35347168551267,rio de janeiro,RJ
4445,-23.68394065390384,-46.686217238271134,sao paulo,SP
83025,-25.5599349775232,-49.21549609740904,sao jose dos pinhais,PR
90410,-30.041373540942896,-51.17780917470719,porto alegre,RS
4023,-23.59191145268046,-46.64276301165677,sao paulo,SP
1318,-23.564875128224376,-46.64719580988513,são paulo,SP
3682,-23.51991843187426,-46.48213528268749,sao paulo,SP
57082,-9.572598911737565,-35.762588114490136,maceio,AL
13250,-23.001213086853525,-46.84561247024653,itatiba,SP
59500,-5.110460078697479,-36.628696099771496,macau,RN
8505,-23.55477489909448,-46.363260619232285,ferraz de vasconcelos,SP
68905,0.0496675157573699,-51.04541865337784,macapa,AP
36420,-20.513141467844303,-43.7223270887532,ouro branco,MG
2616,-23.46922723480868,-46.65566712545441,sao paulo,SP
27660,-22.1714499938345,-43.58296973351008,rio das flores,RJ
88337,-27.004651789019288,-48.62902184570039,balneario camboriu,SC
64800,-6.770602267288731,-43.017317151552575,floriano,PI
21941,-22.814046152756084,-43.23341910530203,rio de janeiro,RJ
42800,-12.700544497922644,-38.32421181038337,camacari,BA
65940,-5.821197798818982,-46.16865769064571,grajau,MA
3156,-23.58136699134433,-46.56438226771108,são paulo,SP
23894,-22.73649219659068,-43.69997634722992,seropédica,RJ
6814,-23.663825404091508,-46.81410240977567,embu das artes,SP
87355,-24.47157081216108,-52.873654548403415,juranda,PR
36771,-21.413511293162248,-42.68058334624443,cataguases,MG
13061,-22.91253937996993,-47.115032872468106,campinas,SP
89440,-26.24159692234453,-50.79503619425766,irineopolis,SC
86975,-23.51341753889366,-51.679717095544696,mandaguari,PR
56180,-8.510233187677986,-39.3079527160095,cabrobo,PE
86450,-23.568957438621524,-49.91082344640861,quatigua,PR
3208,-23.60474025644876,-46.56572252983438,sao paulo,SP
54430,-8.194241493479122,-34.92286740550515,jaboatao dos guararapes,PE
28300,-21.19443290839001,-41.88229075257672,itaperuna,RJ
86165,-22.86285950091695,-51.39232687523587,florestópolis,PR
8285,-23.55412265306711,-46.47558418220902,sao paulo,SP
38600,-17.225486256737398,-46.87196429149209,paracatu,MG
5662,-23.61216943300688,-46.73093841513746,sao paulo,SP
45860,-15.661843938007523,-38.94778498908911,canavieiras,BA
31910,-19.86659832361936,-43.91496235261703,belo horizonte,MG
79990,-23.10018752141245,-55.225526060002096,amambai,MS
9172,-23.69343468595474,-46.51444841293476,santo andré,SP
24744,-22.84183870391791,-43.0094504180279,sao goncalo,RJ
1324,-23.5563983119626,-46.64372029141903,são paulo,SP
5878,-23.687527086040728,-46.78790260644007,sao paulo,SP
18130,-23.54317491515524,-47.12332204873909,sao roque,SP
5126,-23.49846031363604,-46.74053175535224,sao paulo,SP
98740,-28.51796333163676,-53.989466064821904,augusto pestana,RS
5163,-23.483802719401,-46.76464259394658,são paulo,SP
94930,-29.94596424312927,-51.10958231765304,cachoeirinha,RS
11702,-24.020249563419696,-46.45004688121068,praia grande,SP
26220,-22.789344951253305,-43.54551004164483,nova iguacu,RJ
58030,-7.11868045268046,-34.85512308090483,joão pessoa,PB
28400,-21.658715226720663,-41.75172092089204,sao fidelis,RJ
13563,-21.98013908201604,-47.9331191852466,sao carlos,SP
2229,-23.481318771856422,-46.56436778351318,sao paulo,SP
5026,-23.52857396808814,-46.68793839188648,sao paulo,SP
6474,-23.48512972416785,-46.83991355035067,barueri,SP
11060,-23.96630495985904,-46.333939058094096,santos,SP
5015,-23.5414940405102,-46.67483327381832,sao paulo,SP
2460,-23.49018456841136,-46.63691418457493,sao paulo,SP
78600,-15.8934017351074,-52.26530384465776,barra do garcas,MT
88820,-28.69878909007624,-49.30299145901595,icara,SC
97800,-28.39596740499968,-54.958470053437296,sao luiz gonzaga,RS
81070,-25.47772784646935,-49.296955549992816,curitiba,PR
35182,-19.58869301214589,-42.64705912017386,timoteo,MG
3086,-23.52876008992264,-46.56920769167931,são paulo,SP
29146,-20.3434248061915,-40.388742207744,cariacica,ES
5116,-23.511147129061097,-46.74764028365742,sao paulo,SP
30622,-19.985852755756262,-43.99505425867046,belo horizonte,MG
78195,-15.469726215144671,-55.73923902597874,chapada dos guimaraes,MT
80050,-25.435068956979634,-49.24971278088745,curitiba,PR
97930,-28.29316509319595,-54.63764884760512,caibaté,RS
90040,-30.042305057447084,-51.21195902524675,porto alegre,RS
4455,-23.6773459911132,-46.679135364418016,sao paulo,SP
28735,-22.112653854955035,-41.46828560383504,quissama,RJ
11680,-23.442128358258127,-45.084883863808194,ubatuba,SP
89295,-26.254613856715576,-49.51944463080785,rio negrinho,SC
89700,-27.23305913332412,-52.02436783520423,concordia,SC
11250,-23.83884877586917,-46.13236737030568,bertioga,SP
13900,-22.70823955842804,-46.77281438980903,amparo,SP
82515,-25.39801445850885,-49.2313935328928,curitiba,PR
95560,-29.333601416389467,-49.73554167142684,torres,RS
5344,-23.5534498842691,-46.74418674632119,sao paulo,SP
5886,-23.6841480313636,-46.792640771163946,sao paulo,SP
88034,-27.583939046915507,-48.50284697919665,florianopolis,SC
13973,-22.45460216446563,-46.80555652039487,itapira,SP
13845,-22.35828874122001,-46.94513823465893,mogi-guacu,SP
11925,-24.755693318361924,-47.5626826523005,ilha comprida,SP
75805,-17.876500006057867,-51.71943343997603,jatai,GO
71596,-15.6732451682613,-47.8419926977062,brasilia,DF
2736,-23.489741828755253,-46.690858733971936,sao paulo,SP
78300,-14.626551398032523,-57.48954066232516,tangara da serra,MT
35620,-19.14852376290123,-45.456108786218,abaete,MG
30260,-19.92734893260925,-43.91002247745413,belo horizonte,MG
14110,-21.24146541825844,-47.82684153649949,bonfim paulista,SP
19295,-22.54065715805103,-52.18066124104769,teodoro sampaio,SP
18240,-23.490486459458047,-48.421102550610776,angatuba,SP
8740,-23.54638578164183,-46.213343265947,mogi das cruzes,SP
35588,-20.293004521771547,-45.53859750586012,arcos,MG
90410,-30.04044135443471,-51.19557504302037,porto alegre,RS
35171,-19.535306168281338,-42.59911050097926,coronel fabriciano,MG
37706,-21.80339015132454,-46.52042992517899,poços de caldas,MG
16204,-21.299983833383383,-50.35259442084864,birigui,SP
37410,-21.68471484826357,-45.26045205386048,tres coracoes,MG
5268,-23.433930492094152,-46.79362481432854,sao paulo,SP
4904,-23.67218682209016,-46.73972013711119,sao paulo,SP
23821,-22.87201191914216,-43.78941811357148,itaguai,RJ
4410,-23.679705396746822,-46.65174356296407,sao paulo,SP
94480,-30.077221692498863,-51.10859801432658,viamao,RS
91120,-29.98852362392521,-51.126315589243376,porto alegre,RS
22021,-22.96412950790585,-43.176994250072106,rio de janeiro,RJ
3978,-23.62154129370504,-46.50846546594924,sao paulo,SP
88036,-27.58717458560804,-48.52364301930282,florianopolis,SC
18682,-22.60044171644482,-48.794361660076056,lencois paulista,SP
76270,-15.869407855935966,-50.86785209547188,jussara,GO
3047,-23.54068891118931,-46.60179036511051,sao paulo,SP
6642,-23.556040134157293,-46.87507551112186,jandira,SP
21810,-22.87775552207277,-43.458111,rio de janeiro,RJ
33350,-19.71427416245901,-43.98261231429343,sao jose da lapa,MG
72430,-16.009287413590233,-48.06629700416028,brasilia,DF
93180,-29.695470500726746,-51.24585214829462,portão,RS
88131,-27.654377672079743,-48.67342469717691,palhoca,SC
19907,-22.97317399362336,-49.87688500069248,ourinhos,SP
3461,-23.56708167868285,-46.52454873776685,sao paulo,SP
12120,-22.971665503750906,-45.54588161518262,tremembe,SP
1217,-23.53371877324141,-46.649517103381655,são paulo,SP
6240,-23.50357122508515,-46.80652246139437,osasco,SP
2977,-23.471689212098536,-46.71400533241094,sao paulo,SP
3801,-23.501549797391647,-46.49098221288013,sao paulo,SP
74805,-16.69186436760148,-49.2350180849254,goiania,GO
5095,-23.512429943265925,-46.72099875813691,sao paulo,SP
3211,-23.604347210658432,-46.55370318206478,são paulo,SP
22411,-22.97707214556945,-43.19827460244348,rio de janeiro,RJ
97300,-30.334627463987257,-54.3349329711472,sao gabriel,RS
55125,-8.00567074101093,-36.05892497483058,toritama,PE
37550,-22.25850890101812,-45.92794822036991,pouso alegre,MG
85858,-25.53306557470307,-54.54139599008315,foz do iguaçu,PR
84020,-25.087345082982303,-50.1522800821456,ponta grossa,PR
92130,-29.960143953084494,-51.15830415277864,canoas,RS
21321,-22.89486388118357,-43.36314587797116,rio de janeiro,RJ
95560,-29.33982620750344,-49.72644838052713,torres,RS
35680,-20.081458959836315,-44.57045740499899,itauna,MG
96420,-31.358519769220628,-54.0851511546532,bage,RS
37060,-21.584566192924907,-45.42234658348086,varginha,MG
3940,-23.592459551762943,-46.49991954815626,sao paulo,SP
38706,-18.620451940792385,-46.51144339832587,patos de minas,MG
38082,-19.756353740492816,-47.89822661878932,uberaba,MG
5813,-23.6536330335853,-46.7325940387212,sao paulo,SP
20511,-22.92625036219633,-43.23721279961335,rio de janeiro,RJ
26175,-22.725710728865177,-43.342428567053815,belford roxo,RJ
30493,-19.972806317242725,-43.96515424591718,belo horizonte,MG
22261,-22.95481926395057,-43.197992826677776,rio de janeiro,RJ
13500,-22.40056766707428,-47.56441643889242,rio claro,SP
79640,-20.76632347443734,-51.717874481638944,tres lagoas,MS
4204,-23.58537366973432,-46.60660597471713,sao paulo,SP
36090,-21.68950890813088,-43.43267438106646,juiz de fora,MG
91040,-30.00841478766813,-51.16417785137627,porto alegre,RS
7190,-23.46000272745108,-46.49469066847478,guarulhos,SP
30455,-19.968563146834693,-43.96444713514928,belo horizonte,MG
14835,-21.50822272897616,-48.15486674593439,motuca,SP
13025,-22.904721231059423,-47.051966893534384,campinas,SP
14240,-21.279443192826925,-47.29870192590796,cajuru,SP
30492,-19.9690414565756,-43.9654402142651,belo horizonte,MG
31230,-19.89749355314792,-43.95591408145309,belo horizonte,MG
83704,-25.576108543907,-49.42571577390154,araucária,PR
46550,-13.125799033699447,-42.29349310863479,rio do pires,BA
59600,-5.193770584813823,-37.34360488667319,mossoro,RN
39600,-16.855462813155686,-42.06073347744355,aracuai,MG
8120,-23.49914623175025,-46.39690939301168,sao paulo,SP
15773,-20.38868099999999,-50.94843585982183,nova canaa paulista,SP
35666,-19.50986996962752,-44.67472555286054,maravilhas,MG
5594,-23.584285445467103,-46.74041170191586,sao paulo,SP
74223,-16.710869999999947,-49.26760549999996,goiania,GO
21860,-22.860451659463628,-43.51112367700281,rio de janeiro,RJ
20550,-22.918514459057103,-43.23308260075591,rio de janeiro,RJ
6365,-23.56037861184004,-46.84952864315271,carapicuiba,SP
78455,-13.06450876472043,-55.93576305295605,lucas do rio verde,MT
74413,-16.68185236825071,-49.30035417526802,goiania,GO
25715,-22.474623869344487,-43.163444108477,petropolis,RJ
89871,-26.719427620307897,-53.04474702443552,serra alta,SC
3677,-23.51590851624439,-46.49720362822439,são paulo,SP
5868,-23.66218089752657,-46.77844971454905,sao paulo,SP
89905,-26.76864767291371,-53.63729099999999,bandeirante,SC
87013,-23.423844828168264,-51.93918780940229,maringa,PR
1424,-23.56701483374692,-46.66237134540368,sao paulo,SP
39827,-17.804320159094015,-41.78417291164432,poté,MG
16880,-21.21475267535732,-50.86537073195125,valparaiso,SP
6416,-23.48750062911793,-46.89191670974445,barueri,SP
35680,-20.08346867196257,-44.56508096415212,itauna,MG
3871,-23.507492108458965,-46.48987192406482,são paulo,SP
25515,-22.79904077410826,-43.35984207234476,sao joao de meriti,RJ
18870,-23.395848077446,-49.51023096863788,fartura,SP
6192,-23.5280540538404,-46.802069511945206,osasco,SP
41502,-12.900015190271878,-38.35206484579744,salvador,BA
17340,-22.480854848997065,-48.565359658378085,barra bonita,SP
97670,-28.66433768526472,-55.99842038669174,sao borja,RS
11665,-23.6322133723436,-45.42027446278549,caraguatatuba,SP
11724,-24.0020399781985,-46.4245814020139,praia grande,SP
57025,-9.664016029141909,-35.72785558006812,maceio,AL
2220,-23.46516946779101,-46.57244122629157,sao paulo,SP
95705,-29.15526626802149,-51.50446286853982,bento goncalves,RS
73760,-14.705363651018027,-47.52500067528853,são joão d'aliança,GO
43700,-12.784120449622046,-38.395273028449424,simoes filho,BA
45028,-14.8618330905224,-40.823127157102334,vitoria da conquista,BA
94085,-29.9166709977783,-51.06656322300768,gravatai,RS
76270,-15.86771214535715,-50.85303001610879,jussara,GO
88717,-28.67136954259598,-49.1153672252082,sangão,SC
24426,-22.840519503440166,-43.08952743356076,sao goncalo,RJ
20755,-22.891760936724523,-43.30032150721335,rio de janeiro,RJ
85301,-25.409960352731545,-52.41074460337665,laranjeiras do sul,PR
38015,-19.75186162975359,-47.919695621011016,uberaba,MG
11800,-24.32105474607076,-47.627309823288016,juquiá,SP
11713,-24.027932912026024,-46.53082665834724,praia grande,SP
8460,-23.549863452680466,-46.40324832209016,sao paulo,SP
85155,-25.57668528960265,-51.082306008214914,inácio martins,PR
32623,-19.92265198917996,-44.275469244099504,betim,MG
6700,-23.60397330804797,-46.92947083804728,cotia,SP
7411,-23.401626244243737,-46.33777129906509,aruja,SP
1423,-23.56963676994454,-46.656125396537966,sao paulo,SP
90230,-30.00118481127011,-51.200261329996,porto alegre,RS
15703,-20.274466625981983,-50.546320193959744,jales,SP
80050,-25.43436611878932,-49.25340014599798,curitiba,PR
6132,-23.56153658876276,-46.79410196128028,osasco,SP
3375,-23.575889462115526,-46.54882383014024,sao paulo,SP
38401,-18.900354017485142,-48.30589814141035,uberlandia,MG
12525,-22.8332025,-45.25807725,potim,SP
13290,-23.09045812767612,-46.97708282084939,louveira,SP
23525,-22.95106563366094,-43.67580409336609,rio de janeiro,RJ
9980,-23.71348757839623,-46.606194102904894,diadema,SP
3311,-23.53887447996365,-46.56526416651522,são paulo,SP
91225,-30.07204556886241,-51.1786379711616,porto alegre,RS
22441,-22.986409652778644,-43.21827565237461,rio de janeiro,RJ
24812,-22.746783937556653,-42.8751345406284,itaborai,RJ
23030,-22.87380135770736,-43.49224600790299,rio de janeiro,RJ
12244,-23.19797927137306,-45.93522493936475,sao jose dos campos,SP
83503,-25.33541804385708,-49.26905384929883,almirante tamandare,PR
6711,-23.61069259838999,-46.83087447890818,cotia,SP
97573,-30.893964613038847,-55.53504996794643,santana do livramento,RS
11370,-23.95164886556532,-46.37877638391282,sao vicente,SP
87020,-23.396917869857063,-51.94136810369265,maringa,PR
39740,-18.78151627246137,-42.93112713384063,guanhaes,MG
